,Unnamed: 0,capacity,cost,count,county,state,combined,fips,longitude,latitude,Unnamed: 0.1,votes_dem,votes_gop,total_votes,per_dem,per_gop,diff,per_point_diff,state_abbr,county_name,Population,Median Age,White Population,Median Household Income,Median House Price,Bachelors Degree,Drive Alone,State,County,Direct Irradiance,Horizontal Irradiance,Tilt Irradiance
0,2,1.0,7.5,1,Calhoun,AL,AL-Calhoun,01015,-85.822513,33.771706,36,13197.0,32803.0,47376.0,0.278558763931,0.6923969942589999,"19,606",41.38%,AL,Calhoun County,115620,40.0,86053,42346,111400,7585.0,,1,15,4.31,4.47,5.04
1,3,13.5,7.5,3,Cullman,AL,AL-Cullman,01043,-86.86926700000002,34.131923,50,3730.0,32734.0,37278.0,0.100059016042,0.878105048554,"29,004",77.80%,AL,Cullman County,82005,39.9,80309,37862,128600,4355.0,,1,43,4.28,4.42,4.99
2,8,5.64,8.83,1,Jefferson,AL,AL-Jefferson,01073,-86.896536,33.553444,65,151581.0,130614.0,290111.0,0.522493114704,0.450220777564,"20,967",7.23%,AL,Jefferson County,660367,37.3,345005,48492,155000,87278.0,248062.0,1,73,4.24,4.45,5.0
3,9,6.9200000170000004,7.5,3,Lauderdale,AL,AL-Lauderdale,01077,-87.650997,34.904121999999994,67,9877.0,27735.0,38813.0,0.254476592894,0.714580166439,"17,858",46.01%,AL,Lauderdale County,92596,42.4,80447,42577,125300,8559.0,,1,77,4.25,4.38,4.94
4,10,24.97,8.522,5,Lee,AL,AL-Lee,01081,-85.353048,32.604064,69,20987.0,34321.0,57668.0,0.363928001665,0.595148089062,"13,334",23.12%,AL,Lee County,156993,31.6,110378,46589,169000,18834.0,,1,81,4.51,4.59,5.17
5,12,8.150000095,7.5,2,Madison,AL,AL-Madison,01089,-86.55108,34.764238,73,62435.0,89199.0,159473.0,0.391508280399,0.559336063158,"26,764",16.78%,AL,Madison County,353089,38.5,243431,58636,177700,62494.0,144647.0,1,89,4.14,4.35,4.9
6,14,25.0,8.0,1,Mobile,AL,AL-Mobile,01097,-88.196568,30.684573,77,68429.0,91087.0,163387.0,0.418815450434,0.557492334151,"22,658",13.87%,AL,Mobile County,415395,37.5,246791,42699,120500,45416.0,147443.0,1,97,4.49,4.69,5.21
7,16,14.5,7.5,3,Morgan,AL,AL-Morgan,01103,-86.846402,34.454484,80,11216.0,37392.0,49991.0,0.224360384869,0.747974635434,"26,176",52.36%,AL,Morgan County,119565,40.1,99867,47229,132000,12763.0,,1,103,4.26,4.41,4.97
8,21,0.38,10.23,1,Walker,AL,AL-Walker,01127,-87.30109200000003,33.791571000000005,92,4486.0,24208.0,29243.0,0.153404233492,0.827822042882,"19,722",67.44%,AL,Walker County,65294,42.1,59788,35056,90500,2669.0,,1,127,4.34,4.48,5.04
9,25,6945.710000000001,8.46629010781045,74,Apache,AZ,AZ-Apache,04001,-109.493747,35.385845,171,12196.0,5315.0,18659.0,0.653625596227,0.284849134466,"6,881",36.88%,AZ,Apache County,71474,33.8,16744,29417,58400,3932.0,,4,1,7.73,5.56,6.52
10,26,15302.564700000017,5.630550420936928,1449,Cochise,AZ,AZ-Cochise,04003,-109.75412,31.881793,172,15291.0,25036.0,43147.0,0.35439312119000005,0.580248916495,"9,745",22.59%,AZ,Cochise County,126427,42.1,106336,43291,146900,11196.0,34033.0,4,3,7.77,5.81,6.71
11,27,10673.81199999999,6.210809069922039,1011,Coconino,AZ,AZ-Coconino,04005,-111.773728,35.829692,173,25308.0,16573.0,44929.0,0.563288744463,0.368870885174,"8,735",19.44%,AZ,Coconino County,139097,30.6,88124,53152,228600,13804.0,44938.0,4,5,7.6,5.4,6.38
12,28,810276.260250038,5.1650025415998275,57533,Maricopa,AZ,AZ-Maricopa,04013,-112.495534,33.346540999999995,178,549040.0,590465.0,1201934.0,0.456797128628,0.4912624154070001,"41,425",3.45%,AZ,Maricopa County,4167947,36.1,3257173,56004,228300,539022.0,1463712.0,4,13,7.4,5.76,6.67
13,29,18818.55800000012,5.069242346938814,2080,Mohave,AZ,AZ-Mohave,04015,-113.749689,35.717705,179,16485.0,54656.0,74189.0,0.22220275243,0.736712989796,"38,171",51.45%,AZ,Mohave County,204737,50.1,184801,40908,139400,11810.0,57917.0,4,15,7.83,5.61,6.59
14,30,7909.998000000003,7.010789832473179,476,Navajo,AZ,AZ-Navajo,04017,-110.320908,35.390934,180,15362.0,18165.0,35409.0,0.43384450281,0.513005168178,"2,803",7.92%,AZ,Navajo County,108277,36.2,51800,37833,120900,6105.0,,4,17,7.76,5.6,6.58
15,31,159644.7780850296,4.830107102397759,13277,Pima,AZ,AZ-Pima,04019,-111.783018,32.128237,181,195649.0,147019.0,360762.0,0.542321530538,0.407523519661,"48,630",13.48%,AZ,Pima County,1010025,38.4,776470,47099,165900,120656.0,325467.0,4,19,7.66,5.78,6.65
16,32,79261.72488000055,4.890884522356173,4493,Pinal,AZ,AZ-Pinal,04021,-111.367257,32.91891,182,35737.0,53857.0,93805.0,0.380971163584,0.5741378391340001,"18,120",19.32%,AZ,Pinal County,406584,38.5,314363,50770,156500,31291.0,103931.0,4,21,7.61,5.81,6.72
17,33,114507.41999999984,5.356491186906774,5141,Yavapai,AZ,AZ-Yavapai,04025,-112.573745,34.630044,184,29705.0,58862.0,92780.0,0.320165984048,0.634425522742,"29,157",31.43%,AZ,Yavapai County,222255,52.3,204325,48105,216300,27509.0,62484.0,4,25,7.62,5.54,6.46
18,34,405283.0770000004,4.929498745021361,2659,Yuma,AZ,AZ-Yuma,04027,-113.910905,32.773942,185,18336.0,20586.0,40759.0,0.449863833755,0.5050663657109999,"2,250",5.52%,AZ,Yuma County,204275,34.5,153529,40539,119400,12728.0,62040.0,4,27,7.57,5.84,6.73
19,35,62.1,7.009892401781817,16,Benton,AR,AR-Benton,05007,-94.256187,36.337825,99,27894.0,60751.0,94262.0,0.29591988288000004,0.644490887102,"32,857",34.86%,AR,Benton County,249672,35.5,219875,58770,166200,34928.0,99406.0,5,7,4.68,4.4,5.03
20,37,18.6,8.971476899219999,5,Faulkner,AR,AR-Faulkner,05045,-92.324654,35.146356,118,14525.0,29170.0,46364.0,0.313281856613,0.62915192822,"14,645",31.59%,AR,Faulkner County,121552,32.4,100842,50596,160700,14153.0,,5,45,4.39,4.4,4.97
21,38,196.28000000000003,6.652187728147057,19,Garland,AR,AR-Garland,05051,-93.146915,34.578861,121,12283.0,26053.0,40337.0,0.3045095074,0.645883432085,"13,770",34.14%,AR,Garland County,97177,45.1,84540,37013,134500,8118.0,,5,51,4.36,4.37,4.92
22,41,3296.9849999999988,6.421208858390478,28,Pulaski,AR,AR-Pulaski,05119,-92.316515,34.773988,155,89377.0,61182.0,157728.0,0.566652718604,0.387895617772,"28,195",17.88%,AR,Pulaski County,392664,36.8,226517,46070,153200,56591.0,149908.0,5,119,4.39,4.41,4.97
23,42,81.36500000000002,7.545881283259998,16,Saline,AR,AR-Saline,05125,-92.674463,34.648525,157,13247.0,35852.0,51971.0,0.254892151392,0.689846260414,"22,605",43.50%,AR,Saline County,117460,38.2,105327,55051,147200,12291.0,,5,125,4.38,4.39,4.94
24,43,77.92000000000002,5.9687960577000005,10,Sebastian,AR,AR-Sebastian,05131,-94.274989,35.196981,160,12184.0,28769.0,43557.0,0.279725417269,0.660490851069,"16,585",38.08%,AR,Sebastian County,127780,36.9,101037,40448,117100,11781.0,,5,131,4.65,4.44,5.05
25,44,588.6250000000001,5.262257317719446,44,Washington,AR,AR-Washington,05143,-94.218417,35.971209,167,32296.0,40418.0,78153.0,0.413240694535,0.517165048047,"8,122",10.39%,AR,Washington County,225477,31.3,176924,46160,159600,27621.0,85234.0,5,143,4.71,4.42,5.05
26,45,0.75,6.240204619873023,1,White,AR,AR-White,05145,-91.753158,35.254721999999994,168,5157.0,21038.0,27451.0,0.18786200867,0.7663837382969999,"15,881",57.85%,AR,White County,79161,35.5,72316,38986,104900,5402.0,,5,145,4.45,4.42,5.0
27,46,212124.8938003357,6.9173409215639285,22317,Alameda,CA,CA-Alameda,06001,-121.913304,37.648081,186,486351.0,91189.0,613195.0,0.7931424750689999,0.148711258246,"395,162",64.44%,CA,Alameda County,1638215,37.4,701135,81717,656700,299391.0,476852.0,6,1,5.47,4.96,5.68
28,47,85204.15037755005,6.07415608790788,6640,Butte,CA,CA-Butte,06007,-121.601919,39.665959,189,38676.0,42193.0,87847.0,0.440265461541,0.480300977836,"3,517",4.00%,CA,Butte County,225411,37.2,186531,45644,246700,29188.0,68661.0,6,7,5.84,4.97,5.73
29,48,241584.44303546878,6.714382262845156,26320,Contra Costa,CA,CA-Contra Costa,06013,-121.951543,37.919479,192,286658.0,105819.0,415972.0,0.689128114392,0.254389718539,"180,839",43.47%,CA,Contra Costa County,1126745,39.5,639657,83104,522500,194193.0,356000.0,6,13,5.67,5.09,5.81
30,49,45529.22084743288,6.3388964750726124,7347,El Dorado,CA,CA-El Dorado,06017,-120.534398,38.785532,194,35243.0,47633.0,89228.0,0.394976913077,0.533834670731,"12,390",13.89%,CA,El Dorado County,184452,45.4,162276,79019,413100,27607.0,59773.0,6,17,6.45,5.08,5.86
31,50,407165.08531761897,6.031102169128473,25874,Fresno,CA,CA-Fresno,06019,-119.655019,36.761006,195,123660.0,113949.0,250264.0,0.494118211169,0.455315187162,"9,711",3.88%,CA,Fresno County,974861,31.8,630159,46949,220100,75789.0,293907.0,6,19,5.97,5.25,5.92
32,51,8589.198591999986,7.076768550563668,1326,Humboldt,CA,CA-Humboldt,06023,-123.925818,40.706673,197,19596.0,10883.0,33636.0,0.582590082055,0.32355214651,"8,713",25.90%,CA,Humboldt County,135727,37.4,108203,40484,278400,15653.0,,6,23,4.74,4.23,4.9
33,52,30806.515333337025,5.5290586712461565,587,Imperial,CA,CA-Imperial,06025,-115.355395,33.040816,198,28467.0,11295.0,41751.0,0.6818279801680001,0.270532442337,"17,172",41.13%,CA,Imperial County,180191,32.6,126599,40852,169000,10173.0,,6,25,7.66,5.89,6.79
34,53,274095.0329598977,5.809936308561647,22391,Kern,CA,CA-Kern,06029,-118.729506,35.346629,200,86481.0,119164.0,217725.0,0.397202893558,0.5473142725919999,"32,683",15.01%,CA,Kern County,882176,31.4,684691,51342,197100,57137.0,270434.0,6,29,6.23,5.36,6.03
35,54,119653.61862767213,5.675786160655563,3073,Kings,CA,CA-Kings,06031,-119.81553,36.072478,201,12902.0,17446.0,32250.0,0.400062015504,0.54096124031,"4,544",14.09%,CA,Kings County,150965,31.8,99811,45746,183000,10273.0,,6,31,5.88,5.3,5.98
36,55,21013.668999999983,6.967877266985108,1490,Lake,CA,CA-Lake,06033,-122.746757,39.094802,202,6240.0,5752.0,13045.0,0.478344193177,0.440935224224,488,3.74%,CA,Lake County,64591,44.9,50558,37294,167600,4356.0,,6,33,5.96,5.02,5.77
37,56,814927.4705988085,6.189144024311485,82650,Los Angeles,CA,CA-Los Angeles,06037,-118.261862,34.196397999999995,204,1893770.0,620285.0,2652072.0,0.714071865319,0.233886938213,"1,273,485",48.02%,CA,Los Angeles County,10170292,36.1,5285352,59134,497200,1382575.0,3489716.0,6,37,5.85,5.31,6.07
38,57,52305.097745310144,6.095106547063987,3578,Madera,CA,CA-Madera,06039,-119.749852,37.210039,205,13283.0,19221.0,34263.0,0.38767766979,0.5609841520009999,"5,938",17.33%,CA,Madera County,154998,34.3,126455,47150,232800,10734.0,,6,39,6.3,5.26,5.99
39,58,49035.57679934088,7.166268485006778,7300,Marin,CA,CA-Marin,06041,-122.745974,38.051817,206,86650.0,17531.0,109941.0,0.7881500077310001,0.159458254882,"69,119",62.87%,CA,Marin County,261221,46.1,202246,100662,906500,65441.0,80453.0,6,41,5.01,4.76,5.46
40,59,14998.149784000007,7.123411105570697,1739,Mendocino,CA,CA-Mendocino,06045,-123.442881,39.432388,208,6905.0,3571.0,11435.0,0.603847835592,0.312286838653,"3,334",29.16%,CA,Mendocino County,87649,43.1,74078,41896,344500,11172.0,,6,45,5.72,4.83,5.55
41,60,59275.35965139923,5.707449885156982,3409,Merced,CA,CA-Merced,06047,-120.722802,37.194806,209,21856.0,18486.0,42523.0,0.513980669285,0.434729440538,"3,370",7.93%,CA,Merced County,268455,30.6,154331,41997,210100,14641.0,70356.0,6,47,5.88,5.22,5.91
42,61,57781.06542581074,6.4031372356680025,5915,Monterey,CA,CA-Monterey,06053,-121.315573,36.240107,212,64733.0,26378.0,96676.0,0.669587074351,0.272849517978,"38,355",39.67%,CA,Monterey County,433898,34.0,287032,60494,429100,40275.0,129913.0,6,53,6.58,5.4,6.21
43,62,61326.76950271001,6.928472609993165,3595,Napa,CA,CA-Napa,06055,-122.325995,38.507351,213,26161.0,11946.0,40393.0,0.647661723566,0.295744312133,"14,215",35.19%,CA,Napa County,142456,40.1,97452,75513,555900,21600.0,52747.0,6,55,5.81,5.03,5.76
44,63,17040.433313097983,6.756991615002809,2897,Nevada,CA,CA-Nevada,06057,-120.773446,39.295191,214,16199.0,14686.0,33258.0,0.487070779963,0.441577966204,"1,513",4.55%,CA,Nevada County,98877,50.0,90475,54177,383400,16494.0,,6,57,6.54,5.07,5.87
45,64,305594.1224474469,6.446676758280161,37535,Orange,CA,CA-Orange,06059,-117.777207,33.675687,215,556544.0,472669.0,1092116.0,0.509601544158,0.432801094389,"83,875",7.68%,CA,Orange County,3169776,37.8,1982432,78428,625300,538334.0,1210965.0,6,59,5.56,5.27,6.01
46,65,1151214.6226582036,6.332304633738259,14631,Placer,CA,CA-Placer,06061,-120.722718,39.062032,216,61969.0,78977.0,150532.0,0.411666622379,0.524652565567,"17,008",11.30%,CA,Placer County,375391,41.8,307761,75708,407400,65707.0,130287.0,6,61,6.33,5.06,5.84
47,66,492609.0950660649,5.740291801408562,52763,Riverside,CA,CA-Riverside,06065,-116.002239,33.729828000000005,218,339145.0,309514.0,683612.0,0.496107441063,0.452762678244,"29,631",4.33%,CA,Riverside County,2361026,35.1,1485957,58292,312700,199704.0,729985.0,6,65,8.01,5.94,6.88
48,67,212815.05952090482,5.539736419351139,15308,Sacramento,CA,CA-Sacramento,06067,-121.340441,38.450011,219,273768.0,163024.0,467526.0,0.585567433683,0.348695045837,"110,744",23.69%,CA,Sacramento County,1501335,36.0,897925,58942,301200,200616.0,508227.0,6,67,5.76,5.07,5.75
49,68,328507.5259977749,5.882836868442061,32480,San Bernardino,CA,CA-San Bernardino,06071,-116.181197,34.85722,221,312517.0,253962.0,598783.0,0.521920294998,0.42413027758,"58,555",9.78%,CA,San Bernardino County,2128133,33.0,1303554,53803,281300,165281.0,695547.0,6,71,7.48,5.72,6.69
50,69,673434.2112165805,5.9210772666097125,82158,San Diego,CA,CA-San Diego,06073,-116.776117,33.023604,222,567243.0,386807.0,1011651.0,0.560710165858,0.382352214351,"180,436",17.84%,CA,San Diego County,3299521,35.5,2335380,67320,485900,501923.0,1209628.0,6,73,6.87,5.54,6.31
51,70,53898.3946256347,8.135701507883617,9368,San Francisco,CA,CA-San Francisco,06075,-123.032229,37.727239,223,312443.0,34493.0,365295.0,0.8553169356270001,0.09442505372369997,"277,950",76.09%,CA,San Francisco County,864816,38.3,409361,92094,941400,227064.0,175284.0,6,75,4.11,4.29,4.9
52,71,121290.59856049945,6.081798507878947,11561,San Joaquin,CA,CA-San Joaquin,06077,-121.27223700000002,37.935034,224,89791.0,68316.0,166647.0,0.53880957953,0.409944373436,"21,475",12.89%,CA,San Joaquin County,726106,34.1,418597,53705,278400,57597.0,215387.0,6,77,5.8,5.12,5.81
53,72,72189.74151657718,6.598526851359966,8939,San Luis Obispo,CA,CA-San Luis Obispo,06079,-120.44754,35.385227,225,63001.0,52672.0,124575.0,0.50572747341,0.422813566125,"10,329",8.29%,CA,San Luis Obispo County,281401,38.7,237929,62648,508200,39804.0,92348.0,6,79,6.85,5.5,6.31
54,73,89607.30877034963,7.124823324193599,10429,San Mateo,CA,CA-San Mateo,06081,-122.371542,37.414664,226,219580.0,53731.0,287499.0,0.763759178293,0.186891084839,"165,849",57.69%,CA,San Mateo County,765135,39.8,389719,101272,917600,149916.0,268211.0,6,81,4.69,4.59,5.28
55,74,53812.28455291788,6.617800406486817,6052,Santa Barbara,CA,CA-Santa Barbara,06083,-120.038485,34.537378000000004,227,100120.0,53740.0,164224.0,0.6096551052220001,0.327235970382,"46,380",28.24%,CA,Santa Barbara County,444769,34.0,350900,63625,547600,54906.0,141143.0,6,83,6.37,5.42,6.23
56,75,363225.2360186093,6.622334374653126,35058,Santa Clara,CA,CA-Santa Clara,06085,-121.690622,37.22077700000001,228,483472.0,137452.0,659148.0,0.733480189578,0.208529799074,"346,020",52.50%,CA,Santa Clara County,1918044,37.2,869075,102340,836800,346350.0,707871.0,6,85,6.17,5.18,5.95
57,76,46785.388318455305,6.9897121522584476,7253,Santa Cruz,CA,CA-Santa Cruz,06087,-122.007205,37.012488,229,85185.0,20158.0,113509.0,0.7504691257960001,0.177589442247,"65,027",57.29%,CA,Santa Cruz County,274146,36.9,210341,65139,668300,40200.0,88132.0,6,87,5.76,5.03,5.78
58,77,20340.444511890008,6.4696623796923625,2140,Shasta,CA,CA-Shasta,06089,-122.04355,40.760521,230,20471.0,47587.0,72554.0,0.282148468727,0.655883893376,"27,116",37.37%,CA,Shasta County,179533,43.0,155875,46693,238900,18123.0,56989.0,6,89,6.15,4.87,5.68
59,78,85106.7619167888,6.3304412259873875,8872,Solano,CA,CA-Solano,06095,-121.939594,38.267226,233,97159.0,49595.0,156067.0,0.622546726726,0.317780184152,"47,564",30.48%,CA,Solano County,436092,37.6,233286,67443,344900,54767.0,149219.0,6,95,5.61,5.06,5.77
60,79,150705.53505173087,6.911941988886713,14575,Sonoma,CA,CA-Sonoma,06097,-122.945194,38.532574,234,116027.0,37421.0,164060.0,0.707222967207,0.228093380471,"78,606",47.91%,CA,Sonoma County,502146,41.2,384475,66674,512100,73795.0,181526.0,6,97,5.63,4.94,5.66
61,80,31769.105400000088,6.051317393979031,1686,Stanislaus,CA,CA-Stanislaus,06099,-121.002656,37.562384,235,73939.0,72960.0,156141.0,0.4735399414630001,0.467269967529,979,0.63%,CA,Stanislaus County,538388,34.0,407401,52363,243500,36954.0,171057.0,6,99,5.88,5.18,5.87
62,81,30506.776444300107,5.9899828832073565,2799,Sutter,CA,CA-Sutter,06101,-121.702758,39.035257,236,11831.0,16780.0,30429.0,0.388806730422,0.551447632193,"4,949",16.26%,CA,Sutter County,96463,35.4,67966,52277,230200,6487.0,,6,101,5.68,5.01,5.71
63,82,159341.2051222561,5.728051209831975,9962,Tulare,CA,CA-Tulare,06107,-118.780542,36.230453,239,39099.0,50488.0,94571.0,0.413435408318,0.533863446511,"11,389",12.04%,CA,Tulare County,459863,30.6,360593,42413,174300,27041.0,129082.0,6,107,6.56,5.2,5.91
64,83,137017.68915732292,6.260109667813532,15498,Ventura,CA,CA-Ventura,06111,-119.133143,34.358740999999995,241,170489.0,118764.0,307881.0,0.553749663019,0.385746440995,"51,725",16.80%,CA,Ventura County,850536,37.5,686076,80032,528700,117648.0,312930.0,6,111,6.27,5.37,6.17
65,84,74138.58103880919,6.52333748252656,7149,Yolo,CA,CA-Yolo,06113,-121.903178,38.679268,242,34460.0,13178.0,50623.0,0.680718250598,0.26031645694600003,"21,282",42.04%,CA,Yolo County,213016,31.3,140351,58966,366100,27563.0,67221.0,6,113,5.78,5.07,5.79
66,85,21144.771628,6.460264090845183,1863,Yuba,CA,CA-Yuba,06115,-121.34428,39.270026,243,7234.0,12313.0,21058.0,0.343527400513,0.584718396809,"5,079",24.12%,CA,Yuba County,74492,32.3,52039,50451,206800,4606.0,,6,115,5.74,4.99,5.71
67,86,2083.4700000000007,5.024285714285714,130,Adams,CO,CO-Adams,08001,-104.331872,39.874325,244,86471.0,73807.0,175125.0,0.493767309065,0.42145324768,"12,664",7.23%,CO,Adams County,491337,33.4,409072,63493,240300,49063.0,188321.0,8,1,6.06,4.85,5.83
68,87,3694.0900000000042,5.701960784313724,267,Arapahoe,CO,CO-Arapahoe,08005,-104.331733,39.644632,246,148365.0,109638.0,281658.0,0.526755852843,0.389259314488,"38,727",13.75%,CO,Arapahoe County,631096,36.4,452681,67002,290800,111725.0,258209.0,8,5,6.16,4.88,5.85
69,88,5639.991999999994,6.591029411764704,707,Boulder,CO,CO-Boulder,08013,-105.398382,40.094826,250,124715.0,38766.0,176735.0,0.7056610179080001,0.219345347554,"85,949",48.63%,CO,Boulder County,319372,36.0,286798,72009,416500,69676.0,111040.0,8,13,5.63,4.41,5.34
70,89,24.41,4.19,4,Broomfield,CO,CO-Broomfield,08014,-105.052125,39.953382,251,19530.0,14272.0,37342.0,0.523003588453,0.382196989984,"5,258",14.08%,CO,Broomfield County,65065,36.8,56289,84921,342800,,,8,14,5.68,4.55,5.48
71,90,10636.794999999998,5.956896551724137,319,Denver,CO,CO-Denver,08031,-104.880625,39.761849,260,174611.0,43637.0,232291.0,0.751690767184,0.187854888911,"130,974",56.38%,CO,Denver County,682545,34.1,526428,58003,316700,138565.0,267491.0,8,31,6.06,4.82,5.83
72,91,1200.2399999999998,4.5211538461538465,145,Douglas,CO,CO-Douglas,08035,-104.926199,39.326435,262,67045.0,100178.0,182918.0,0.366530357865,0.547666167354,"33,133",18.11%,CO,Douglas County,322387,38.4,287318,107650,398800,76105.0,134849.0,8,35,6.11,4.78,5.77
73,92,8327.658000000001,6.238749999999999,59,El Paso,CO,CO-El Paso,08041,-104.527472,38.82738300000001,265,105807.0,176506.0,313273.0,0.33774694914700004,0.563425510657,"70,699",22.57%,CO,El Paso County,674471,33.8,533295,60109,232900,97132.0,259077.0,8,41,6.43,4.98,5.99
74,93,12563.915999999996,5.540352941176471,377,Jefferson,CO,CO-Jefferson,08059,-105.245601,39.58646,274,151885.0,130233.0,309529.0,0.490697156002,0.420745713649,"21,652",7.00%,CO,Jefferson County,565524,40.4,511780,71136,330200,109630.0,238787.0,8,59,5.96,4.49,5.5
75,94,7591.630999999999,7.608684210526317,66,Larimer,CO,CO-Larimer,08069,-105.482131,40.663091,279,92170.0,82624.0,193897.0,0.475355472235,0.426123147857,"9,546",4.92%,CO,Larimer County,333577,35.6,306923,64919,298100,60222.0,129368.0,8,69,5.75,4.36,5.36
76,95,1585.0800000000013,4.493367875647682,202,Mesa,CO,CO-Mesa,08077,-108.46183700000002,39.019492,283,20958.0,48129.0,74876.0,0.279902772584,0.64278273412,"27,171",36.29%,CO,Mesa County,148513,37.9,140608,51465,198800,20676.0,53877.0,8,77,6.38,4.95,5.88
77,96,1027.56,7.28,5,Pueblo,CO,CO-Pueblo,08101,-104.489892,38.170658,295,27945.0,27746.0,60112.0,0.464882219856,0.4615717327660001,199,0.33%,CO,Pueblo County,163591,38.9,128052,40050,148000,15842.0,52697.0,8,101,6.66,5.14,6.13
78,97,1022.43,6.245000000000001,147,Weld,CO,CO-Weld,08123,-104.383649,40.555794,306,45869.0,75882.0,133790.0,0.342843261828,0.567172434412,"30,013",22.43%,CO,Weld County,285174,34.0,260541,70256,242700,31679.0,111216.0,8,123,5.89,4.76,5.72
79,98,23712.423000000013,4.970696008838155,2536,Fairfield,CT,CT-Fairfield,09001,-73.36675699999998,41.228103,308,238723.0,155457.0,410279.0,0.5818552740940001,0.378905574012,"83,266",20.29%,CT,Fairfield County,948053,40.0,698939,86414,420900,167323.0,338183.0,9,1,3.9,3.92,4.64
80,99,38735.500999999975,4.65764760393542,4105,Hartford,CT,CT-Hartford,09003,-72.732916,41.80605300000001,309,233789.0,147912.0,399219.0,0.585615915074,0.370503407904,"85,877",21.51%,CT,Hartford County,895841,40.3,643989,69622,238500,131824.0,356883.0,9,3,3.73,3.84,4.52
81,100,10729.896999999997,5.271962009765542,1166,Litchfield,CT,CT-Litchfield,09005,-73.235428,41.791897,310,39836.0,53376.0,97434.0,0.408851119732,0.547816983804,"13,540",13.90%,CT,Litchfield County,183603,47.0,171527,70667,248300,25433.0,80278.0,9,5,3.83,3.85,4.54
82,101,14077.777999999986,4.78607132559358,1393,Middlesex,CT,CT-Middlesex,09007,-72.524227,41.434525,311,45306.0,38847.0,88402.0,0.512499717201,0.439435759372,"6,459",7.31%,CT,Middlesex County,164063,44.9,145227,83530,282700,26726.0,69657.0,9,7,3.9,3.91,4.63
83,102,27300.107999999946,4.849631705045397,2983,New Haven,CT,CT-New Haven,09009,-72.900204,41.349717,312,203601.0,158373.0,375909.0,0.541623105592,0.421306752432,"45,228",12.03%,CT,New Haven County,859470,40.0,633320,61760,244400,113143.0,325784.0,9,9,3.88,3.92,4.64
84,103,13675.068500000005,5.071730867504384,1512,New London,CT,CT-New London,09011,-72.103452,41.47863,313,62951.0,54574.0,124527.0,0.505520891052,0.438250339284,"8,377",6.73%,CT,New London County,271863,40.8,217247,65764,240900,35537.0,107733.0,9,11,3.89,3.91,4.64
85,104,9747.096999999996,4.940114424701625,1116,Tolland,CT,CT-Tolland,09013,-72.340977,41.858076,314,38450.0,33989.0,77069.0,0.498903579909,0.441020384331,"4,461",5.79%,CT,Tolland County,151420,37.6,133224,82168,246900,23730.0,62559.0,9,13,3.73,3.83,4.52
86,105,8834.818000000003,4.82714326967508,969,Windham,CT,CT-Windham,09015,-71.990702,41.824999,315,21776.0,25738.0,50703.0,0.429481490247,0.507622823107,"3,962",7.81%,CT,Windham County,116573,39.7,104470,62905,198000,12217.0,,9,15,3.77,3.84,4.56
87,106,4.2,5.5880104185167285,1,Kent,DE,DE-Kent,10001,-75.50298199999997,39.097088,317,33347.0,36989.0,74253.0,0.449099699675,0.498148222967,"3,642",4.90%,DE,Kent County,173533,37.1,115814,56778,215200,14941.0,,10,1,4.17,4.15,4.86
88,106,4.2,5.5880104185167285,1,Kent,DE,DE-Kent,10001,-75.50298199999997,39.097088,317,33347.0,36989.0,74253.0,0.449099699675,0.498148222967,"3,642",4.90%,DE,Kent County,173533,37.1,115814,56778,215200,14941.0,,10,1,4.17,4.15,4.86
87,106,31802.99199999998,5.7278350506821445,552,Kent,DE,DE-Kent,10001,-75.50298199999997,39.097088,317,33347.0,36989.0,74253.0,0.449099699675,0.498148222967,"3,642",4.90%,DE,Kent County,173533,37.1,115814,56778,215200,14941.0,,10,1,4.17,4.15,4.86
88,106,31802.99199999998,5.7278350506821445,552,Kent,DE,DE-Kent,10001,-75.50298199999997,39.097088,317,33347.0,36989.0,74253.0,0.449099699675,0.498148222967,"3,642",4.90%,DE,Kent County,173533,37.1,115814,56778,215200,14941.0,,10,1,4.17,4.15,4.86
89,107,26946.45149999998,6.0607660410569695,2044,New Castle,DE,DE-New Castle,10003,-75.644132,39.575915,318,162905.0,85507.0,261468.0,0.6230399131059999,0.327026634234,"77,398",29.60%,DE,New Castle County,556779,37.7,361425,66256,250800,78846.0,219942.0,10,3,4.11,4.11,4.81
90,108,24858.265999999974,5.781302935964937,1940,Sussex,DE,DE-Sussex,10005,-75.335495,38.677511,319,39329.0,62607.0,105814.0,0.371680495965,0.591670289376,"23,278",22.00%,DE,Sussex County,215622,48.3,177665,55065,234400,23794.0,73711.0,10,5,4.17,4.16,4.87
91,109,8249.460662000014,6.562329218106996,1490,District of Columbia,DC,DC-District of Columbia,11001,-77.017094,38.904149,316,260223.0,11553.0,280272.0,0.928465918822,0.0412206713478,"248,670",88.72%,DC,District of Columbia,672228,33.8,269143,75628,551300,112629.0,120333.0,11,1,4.21,4.15,4.87
92,109,8249.460662000014,6.562329218106996,1490,District of Columbia,DC,DC-District of Columbia,11001,-77.017094,38.904149,316,260223.0,11553.0,280272.0,0.928465918822,0.0412206713478,"248,670",88.72%,DC,District of Columbia,672228,33.8,269143,75628,551300,112629.0,120333.0,11,1,4.21,4.15,4.87
91,109,10570.299330999991,6.12544279143378,1800,District of Columbia,DC,DC-District of Columbia,11001,-77.017094,38.904149,316,260223.0,11553.0,280272.0,0.928465918822,0.0412206713478,"248,670",88.72%,DC,District of Columbia,672228,33.8,269143,75628,551300,112629.0,120333.0,11,1,4.21,4.15,4.87
92,109,10570.299330999991,6.12544279143378,1800,District of Columbia,DC,DC-District of Columbia,11001,-77.017094,38.904149,316,260223.0,11553.0,280272.0,0.928465918822,0.0412206713478,"248,670",88.72%,DC,District of Columbia,672228,33.8,269143,75628,551300,112629.0,120333.0,11,1,4.21,4.15,4.87
93,110,39040.291000000034,5.68572554106619,873,Alachua,FL,FL-Alachua,12001,-82.357221,29.67574,320,75370.0,46584.0,127827.0,0.589625040093,0.364430049989,"28,786",22.52%,FL,Alachua County,259964,31.1,182337,47895,170900,36023.0,89576.0,12,1,4.63,4.79,5.32
94,111,24.605,6.884100970033335,5,Bay,FL,FL-Bay,12005,-85.631348,30.237563,322,21689.0,62010.0,87151.0,0.24886690915800005,0.711523677296,"40,321",46.27%,FL,Bay County,181635,39.3,148553,48259,165600,18672.0,67138.0,12,5,4.59,4.79,5.32
95,112,13774.351999999995,6.927493298742857,66,Brevard,FL,FL-Brevard,12009,-80.700384,28.298275,324,119525.0,181620.0,314337.0,0.380244769149,0.577787533762,"62,095",19.75%,FL,Brevard County,568088,47.3,471430,50416,158800,72438.0,193578.0,12,9,5.02,5.01,5.53
96,113,781.9590000000002,8.028698580435996,51,Broward,FL,FL-Broward,12011,-80.476658,26.19352,325,546956.0,258521.0,822837.0,0.6647197440079999,0.314182517315,"288,435",35.05%,FL,Broward County,1896425,40.2,1162981,53926,222900,275221.0,730385.0,12,11,4.77,4.97,5.44
97,114,261.188,7.533908707719354,31,Charlotte,FL,FL-Charlotte,12015,-81.94085799999998,26.868826,327,33421.0,60196.0,96323.0,0.3469680138699999,0.624939007298,"26,775",27.80%,FL,Charlotte County,173115,57.9,155857,45492,167300,18561.0,,12,15,5.08,5.11,5.63
98,115,114.92800000000004,7.106189038504349,23,Citrus,FL,FL-Citrus,12017,-82.524796,28.843628,328,22765.0,54377.0,79590.0,0.286028395527,0.683213971604,"31,612",39.72%,FL,Citrus County,141058,56.0,131809,40294,115900,11212.0,,12,17,4.9,4.94,5.48
99,116,39.98,8.6414532542,9,Clay,FL,FL-Clay,12019,-81.858147,29.987115000000006,329,27768.0,74898.0,106363.0,0.261068228613,0.704173443773,"47,130",44.31%,FL,Clay County,203967,39.6,164663,58676,166900,23245.0,,12,19,4.56,4.74,5.26
100,117,181.566,7.791720373587098,31,Collier,FL,FL-Collier,12021,-81.40088399999998,26.118713,330,60941.0,105297.0,170505.0,0.35741473857100003,0.617559602358,"44,356",26.01%,FL,Collier County,357305,49.8,319302,62126,315000,57501.0,114815.0,12,21,4.86,5.02,5.51
101,118,106.144,7.417408298457143,8,Columbia,FL,FL-Columbia,12023,-82.623127,30.221305,331,7599.0,20359.0,28696.0,0.26481042654,0.709471703373,"12,760",44.47%,FL,Columbia County,68348,39.1,52746,47808,110200,4717.0,,12,23,4.65,4.78,5.32
102,119,15463.581999999988,8.721618205606353,83,Duval,FL,FL-Duval,12031,-81.648113,30.335245,334,203627.0,210061.0,428734.0,0.474949502489,0.48995647651,"6,434",1.50%,FL,Duval County,913010,36.1,557785,49554,153300,121472.0,353420.0,12,31,4.64,4.77,5.31
103,120,77.52999999999999,6.922318460041666,15,Escambia,FL,FL-Escambia,12033,-87.33904,30.611664,335,57114.0,88370.0,151609.0,0.376719060214,0.582880963531,"31,256",20.62%,FL,Escambia County,311003,37.1,212859,46001,124400,33796.0,110889.0,12,33,4.48,4.67,5.19
104,121,107.79,7.850367013779999,20,Flagler,FL,FL-Flagler,12035,-81.286362,29.474894,336,21985.0,33804.0,57413.0,0.382927211607,0.588786511766,"11,819",20.59%,FL,Flagler County,105392,50.0,86837,48864,181100,13728.0,,12,35,4.67,4.81,5.33
105,122,76.05999999999997,7.313425770118751,17,Hernando,FL,FL-Hernando,12053,-82.464835,28.567911,345,31818.0,59029.0,93878.0,0.338929248599,0.628784166684,"27,211",28.99%,FL,Hernando County,178439,49.6,158976,43590,121200,14998.0,,12,53,4.77,4.89,5.42
106,123,30.888,7.823872859700001,6,Highlands,FL,FL-Highlands,12055,-81.340921,27.342627,346,14901.0,29509.0,45589.0,0.32685516243,0.6472833358919999,"14,608",32.04%,FL,Highlands County,99491,52.7,78734,34242,92600,7703.0,,12,55,4.95,5.07,5.59
107,124,1540.0089999999993,7.237740402558335,67,Hillsborough,FL,FL-Hillsborough,12057,-82.349568,27.90659,347,306422.0,265928.0,595072.0,0.514932646806,0.446883738438,"40,494",6.80%,FL,Hillsborough County,1349050,36.8,945613,51725,183000,187657.0,507778.0,12,57,4.9,5.0,5.53
108,125,4200.68,7.7457183188909084,12,Indian River,FL,FL-Indian River,12061,-80.574803,27.700638,349,28997.0,48564.0,79897.0,0.362929772082,0.6078325844520001,"19,567",24.49%,FL,Indian River County,147919,52.3,129463,49379,174000,14595.0,,12,61,4.75,4.94,5.42
109,126,353.59300000000013,7.345632969851162,55,Lake,FL,FL-Lake,12069,-81.712282,28.764113,353,62597.0,101888.0,169898.0,0.368438710285,0.599700997069,"39,291",23.13%,FL,Lake County,325875,46.5,273431,50305,155100,36496.0,,12,69,4.72,4.89,5.41
110,127,486.79800000000006,6.62890203590706,90,Lee,FL,FL-Lee,12071,-81.89225,26.552134,354,124725.0,191141.0,325797.0,0.382830412803,0.586687415783,"66,416",20.39%,FL,Lee County,701982,47.5,600765,50651,184200,83120.0,214260.0,12,71,5.05,5.12,5.64
111,128,2028.3410000000001,9.10636972384956,117,Leon,FL,FL-Leon,12073,-84.2778,30.45931,355,91936.0,53777.0,151925.0,0.605140694422,0.353970709232,"38,159",25.12%,FL,Leon County,286272,30.4,177414,46002,179100,41255.0,109995.0,12,73,4.94,4.79,5.35
112,129,543.5840000000002,7.654314511855769,55,Manatee,FL,FL-Manatee,12081,-82.365783,27.481386,359,71066.0,101681.0,178521.0,0.398082018362,0.569574447824,"30,615",17.15%,FL,Manatee County,363369,47.2,313730,50835,194000,44362.0,112065.0,12,81,4.97,5.04,5.56
113,130,306.32999999999987,7.566322942322451,53,Marion,FL,FL-Marion,12083,-82.0431,29.202805,360,61958.0,107710.0,174485.0,0.355090695475,0.617302346907,"45,752",26.22%,FL,Marion County,343254,48.8,281114,40050,120500,33387.0,89180.0,12,83,4.68,4.82,5.34
114,131,87.99700000000001,6.704252906549999,18,Martin,FL,FL-Martin,12085,-80.398211,27.079954,361,30158.0,53182.0,85741.0,0.35173370966,0.6202633512560001,"23,024",26.85%,FL,Martin County,156283,51.4,137868,51622,233100,26314.0,,12,85,4.68,4.93,5.39
115,132,327.0080000000001,8.766887242795555,52,Miami-Dade,FL,FL-Miami-Dade,12086,-80.499045,25.610494,362,623006.0,333666.0,978670.0,0.636584344059,0.340938212063,"289,340",29.56%,FL,Miami-Dade County,2693117,39.8,2032881,43786,251900,331466.0,959373.0,12,86,4.69,4.98,5.42
116,133,153.83500000000004,8.296741017257894,25,Monroe,FL,FL-Monroe,12087,-81.206777,25.601043,363,18949.0,21885.0,42434.0,0.446552292973,0.515742093604,"2,936",6.92%,FL,Monroe County,77482,46.7,69180,61020,409900,13581.0,28890.0,12,87,5.15,5.18,5.67
117,134,51.06500000000001,7.627262919290907,11,Nassau,FL,FL-Nassau,12089,-81.76492900000002,30.605926,364,10849.0,34221.0,46537.0,0.23312632958700005,0.7353503663750001,"23,372",50.22%,FL,Nassau County,78444,43.8,70908,52005,213500,7482.0,,12,89,4.62,4.74,5.28
118,135,77.24999999999999,6.355830527485714,14,Okaloosa,FL,FL-Okaloosa,12091,-86.59419399999999,30.665858,365,23711.0,71788.0,100657.0,0.235562355326,0.7131943133609999,"48,077",47.76%,FL,Okaloosa County,198664,36.6,158059,55659,204200,27103.0,,12,91,4.49,4.65,5.18
119,136,21876.476999999977,6.7824438178225215,339,Orange,FL,FL-Orange,12095,-81.323295,28.514435,367,329579.0,195091.0,545800.0,0.603845731037,0.357440454379,"134,488",24.64%,FL,Orange County,1288126,34.7,829874,50720,190700,185472.0,516090.0,12,95,4.69,4.88,5.39
120,137,785.1319999999994,6.152320634755961,115,Osceola,FL,FL-Osceola,12097,-81.139312,28.059027,368,85287.0,50252.0,139981.0,0.609275544538,0.358991577428,"35,035",25.03%,FL,Osceola County,323993,36.1,234791,45244,160700,30283.0,116823.0,12,97,4.78,4.95,5.46
121,138,573.9059999999997,8.11466794586744,92,Palm Beach,FL,FL-Palm Beach,12099,-80.448673,26.645763,369,371411.0,270762.0,657235.0,0.5651114137259999,0.411971364885,"100,649",15.31%,FL,Palm Beach County,1422789,44.5,1052547,56664,246200,235235.0,509822.0,12,99,4.79,4.98,5.45
122,139,154.79200000000003,6.685831472891997,26,Pasco,FL,FL-Pasco,12101,-82.45570699999998,28.302024,370,89998.0,141943.0,240814.0,0.37372411903,0.589430016527,"51,945",21.57%,FL,Pasco County,497909,44.7,438341,46133,137700,51700.0,162092.0,12,101,4.82,4.93,5.45
123,140,507.594,7.297781839249313,85,Pinellas,FL,FL-Pinellas,12103,-82.739518,27.903122,371,233327.0,238746.0,491520.0,0.4747049967450001,0.485729980469,"5,419",1.10%,FL,Pinellas County,949827,47.6,781900,47618,170500,141158.0,343838.0,12,103,5.19,5.13,5.68
124,141,479.82800000000015,7.132792304189363,57,Polk,FL,FL-Polk,12105,-81.69278299999998,27.953115000000004,372,117182.0,157216.0,283828.0,0.412862719675,0.553912933185,"40,034",14.11%,FL,Polk County,650092,40.1,510686,44061,123100,56693.0,211831.0,12,105,4.8,4.96,5.48
125,142,22.461,5.946736269333331,6,Putnam,FL,FL-Putnam,12107,-81.740894,29.606006,373,9920.0,21873.0,32652.0,0.303809873821,0.6698823961779999,"11,953",36.61%,FL,Putnam County,72023,44.6,57777,31483,82300,3267.0,,12,107,4.64,4.79,5.31
126,145,63.94,6.592769412838463,14,Santa Rosa,FL,FL-Santa Rosa,12113,-87.014255,30.703633,374,18398.0,65126.0,87432.0,0.210426388508,0.744876017934,"46,728",53.44%,FL,Santa Rosa County,167040,40.2,141407,59682,169200,22442.0,,12,113,4.45,4.66,5.19
127,146,799.4989999999999,8.067790961565382,80,Sarasota,FL,FL-Sarasota,12115,-82.365835,27.184386,375,97676.0,124098.0,228509.0,0.427449247076,0.543077077927,"26,422",11.56%,FL,Sarasota County,405549,55.1,371156,56286,217500,66917.0,130492.0,12,115,5.03,5.08,5.6
128,147,629.5819999999994,7.1557129092618466,79,Seminole,FL,FL-Seminole,12117,-81.13198,28.690079,376,105611.0,109265.0,224377.0,0.470685498068,0.486970589677,"3,654",1.63%,FL,Seminole County,449144,39.3,354278,57074,196000,76971.0,177870.0,12,117,4.71,4.86,5.37
129,143,131.06,7.732194420868423,19,St. Johns,FL,FL-St. Johns,12109,-81.383914,29.890593,377,43037.0,88633.0,136392.0,0.315539034547,0.649840166579,"45,596",33.43%,FL,St. Johns County,226640,43.3,199165,70379,273000,45861.0,83149.0,12,109,4.79,4.86,5.4
130,143,131.06,7.732194420868423,19,St. Johns,FL,FL-St. Johns,12109,-81.383914,29.890593,377,43037.0,88633.0,136392.0,0.315539034547,0.649840166579,"45,596",33.43%,FL,St. Johns County,226640,43.3,199165,70379,273000,45861.0,83149.0,12,109,4.79,4.86,5.4
129,143,103.846,6.927272727272728,11,St. Johns,FL,FL-St. Johns,12109,-81.383914,29.890593,377,43037.0,88633.0,136392.0,0.315539034547,0.649840166579,"45,596",33.43%,FL,St. Johns County,226640,43.3,199165,70379,273000,45861.0,83149.0,12,109,4.79,4.86,5.4
130,143,103.846,6.927272727272728,11,St. Johns,FL,FL-St. Johns,12109,-81.383914,29.890593,377,43037.0,88633.0,136392.0,0.315539034547,0.649840166579,"45,596",33.43%,FL,St. Johns County,226640,43.3,199165,70379,273000,45861.0,83149.0,12,109,4.79,4.86,5.4
131,144,75.18199999999999,8.361542315483332,13,St. Lucie,FL,FL-St. Lucie,12111,-80.443364,27.380775,378,66812.0,70248.0,140731.0,0.4747496997820001,0.499165073793,"3,436",2.44%,FL,St. Lucie County,298563,44.4,219571,45905,149300,26364.0,97400.0,12,111,4.72,4.93,5.4
132,144,75.18199999999999,8.361542315483332,13,St. Lucie,FL,FL-St. Lucie,12111,-80.443364,27.380775,378,66812.0,70248.0,140731.0,0.4747496997820001,0.499165073793,"3,436",2.44%,FL,St. Lucie County,298563,44.4,219571,45905,149300,26364.0,97400.0,12,111,4.72,4.93,5.4
131,144,19.492,8.193333333333333,4,St. Lucie,FL,FL-St. Lucie,12111,-80.443364,27.380775,378,66812.0,70248.0,140731.0,0.4747496997820001,0.499165073793,"3,436",2.44%,FL,St. Lucie County,298563,44.4,219571,45905,149300,26364.0,97400.0,12,111,4.72,4.93,5.4
132,144,19.492,8.193333333333333,4,St. Lucie,FL,FL-St. Lucie,12111,-80.443364,27.380775,378,66812.0,70248.0,140731.0,0.4747496997820001,0.499165073793,"3,436",2.44%,FL,St. Lucie County,298563,44.4,219571,45905,149300,26364.0,97400.0,12,111,4.72,4.93,5.4
133,148,88.45299999999999,8.426097916362501,18,Sumter,FL,FL-Sumter,12119,-82.074715,28.714294,379,22631.0,52722.0,76649.0,0.295254993542,0.6878367623839999,"30,091",39.26%,FL,Sumter County,118891,66.5,109243,51335,243500,21538.0,,12,119,4.78,4.9,5.43
134,149,670.8119999999994,7.47802707897876,134,Volusia,FL,FL-Volusia,12127,-81.161813,29.057617,383,108793.0,142763.0,260304.0,0.417945940132,0.548447200197,"33,970",13.05%,FL,Volusia County,517887,47.0,433560,42175,141900,59187.0,170138.0,12,127,4.65,4.81,5.31
135,152,65.8,5.724956385364004,1,Bibb,GA,GA-Bibb,13021,-83.694193,32.808844,397,34383.0,22589.0,58327.0,0.589486858573,0.387282047765,"11,794",20.22%,GA,Bibb County,153721,36.0,63217,38605,106600,14947.0,51307.0,13,21,4.59,4.63,5.22
136,156,1.5,8.27,1,Chatham,GA,GA-Chatham,13051,-81.091768,31.974755,411,58998.0,43649.0,106013.0,0.556516653618,0.41173252337,"15,349",14.48%,GA,Chatham County,286956,34.8,151610,49252,176500,38356.0,102624.0,13,51,4.85,4.81,5.4
137,158,27.5,5.724956385364004,1,Clarke,GA,GA-Clarke,13059,-83.36713,33.952234000000004,415,29514.0,12691.0,44221.0,0.667420456344,0.286990343954,"16,823",38.04%,GA,Clarke County,123912,26.6,78175,31284,153300,15418.0,40553.0,13,59,4.57,4.55,5.17
138,163,1003.8,6.0,2,DeKalb,GA,GA-DeKalb,13089,-84.226343,33.770661,430,239131.0,47531.0,295871.0,0.8082272341660001,0.160647714714,"191,600",64.76%,GA,DeKalb County,734871,35.5,255926,54057,176800,121469.0,259645.0,13,89,4.47,4.51,5.1
139,166,217.7,6.0,2,Fayette,GA,GA-Fayette,13113,-84.493941,33.412717,442,23255.0,35034.0,60387.0,0.385099441933,0.580157981022,"11,779",19.51%,GA,Fayette County,110714,43.7,76899,78557,240500,24477.0,,13,113,4.46,4.53,5.12
140,167,5.039999962,5.724956385364004,1,Floyd,GA,GA-Floyd,13115,-85.21373,34.263677,443,9127.0,24045.0,34250.0,0.266481751825,0.70204379562,"14,918",43.56%,GA,Floyd County,96504,38.2,73949,40510,120600,7065.0,,13,115,4.33,4.44,5.02
141,168,53.2,4.956666666666666,3,Forsyth,GA,GA-Forsyth,13117,-84.127336,34.225143,444,23427.0,69801.0,97314.0,0.240736173624,0.7172760342810001,"46,374",47.65%,GA,Forsyth County,212438,38.1,177310,94537,299200,43448.0,79829.0,13,117,4.47,4.48,5.09
142,169,1212.4400000000005,6.603333333333333,10,Fulton,GA,GA-Fulton,13121,-84.468182,33.79003400000001,446,281875.0,110372.0,407173.0,0.692273308888,0.271069054186,"171,503",42.12%,GA,Fulton County,1010562,35.2,457848,60291,274700,199734.0,364416.0,13,121,4.42,4.49,5.08
143,171,75.46,5.724956385364004,1,Gwinnett,GA,GA-Gwinnett,13135,-84.022938,33.959101000000004,453,165063.0,146463.0,323931.0,0.509562221584,0.452142585921,"18,600",5.74%,GA,Gwinnett County,895823,34.9,462519,61732,183200,131970.0,339809.0,13,135,4.45,4.5,5.1
144,180,70.6,5.724956385364004,1,Richmond,GA,GA-Richmond,13245,-82.074998,33.361487,507,48707.0,24441.0,74952.0,0.6498425659089999,0.326088696766,"24,266",32.38%,GA,Richmond County,201793,33.7,77245,41672,102200,16521.0,67872.0,13,245,4.63,4.63,5.24
145,183,7.399999857999999,5.724956385364004,3,Walker,GA,GA-Walker,13295,-85.305385,34.735827,532,4213.0,18938.0,23939.0,0.17598897197000002,0.791094030661,"14,725",61.51%,GA,Walker County,68066,39.7,63188,44358,126200,4487.0,,13,295,4.23,4.35,4.92
146,185,243.059999809,5.724956385364004,3,Whitfield,GA,GA-Whitfield,13313,-84.968541,34.801726,541,7925.0,21514.0,30362.0,0.2610170608,0.7085830972930001,"13,589",44.76%,GA,Whitfield County,104216,34.9,90438,45894,130600,6544.0,,13,313,4.24,4.38,4.96
147,186,6919.380000000001,8.663333333333334,483,Hawaii,HI,HI-Hawaii,15001,-155.502443,19.597764,546,41258.0,17500.0,64865.0,0.636059508209,0.269791104602,"23,758",36.63%,HI,Hawaii County,196428,41.9,65100,60033,321400,26620.0,62914.0,15,1,7.45,6.07,6.38
148,187,8882.204999999996,3.945,856,Honolulu,HI,HI-Honolulu,15003,-158.201976,21.461364,547,175634.0,90296.0,285683.0,0.614786319102,0.316070609732,"85,338",29.87%,HI,Honolulu County,998714,36.5,223187,77273,629900,148891.0,321784.0,15,3,6.1,5.76,6.11
149,188,4676.0700000000015,5.6,399,Kauai,HI,HI-Kauai,15007,-159.705965,22.012038,548,16456.0,7574.0,26335.0,0.624871843554,0.287602050503,"8,882",33.73%,HI,Kauai County,71735,42.3,22644,77140,495900,9423.0,,15,7,5.33,5.42,5.74
150,189,6320.225000000001,7.86,585,Maui,HI,HI-Maui,15009,-156.60155,20.855931,549,33479.0,13445.0,51942.0,0.64454583959,0.25884640560600003,"20,034",38.57%,HI,Maui County,164593,39.3,61299,70497,569300,20092.0,60156.0,15,9,6.81,6.08,6.43
151,190,160.702,4.880000000000001,9,Ada,ID,ID-Ada,16001,-116.244456,43.447861,649,75676.0,93748.0,195587.0,0.386917330906,0.4793161099660001,"18,072",9.24%,ID,Ada County,434211,36.4,397109,57399,218900,72855.0,165767.0,16,1,6.04,4.65,5.52
152,191,13.52,16.91,4,Bannock,ID,ID-Bannock,16005,-112.228986,42.692938,651,10342.0,17180.0,33405.0,0.3095943721,0.514294267325,"6,838",20.47%,ID,Bannock County,83744,33.3,75407,41530,151500,8864.0,,16,5,5.21,4.28,4.88
153,193,80.792,5.57,2,Canyon,ID,ID-Canyon,16027,-116.708527,43.623051,662,16683.0,46755.0,72007.0,0.231685808324,0.6493118724570001,"30,072",41.76%,ID,Canyon County,207478,33.7,182834,42786,149200,15028.0,,16,27,5.88,4.6,5.46
154,195,1.19,5.5800610128253565,1,Twin Falls,ID,ID-Twin Falls,16083,-114.66563899999998,42.35230900000001,690,6844.0,21063.0,31893.0,0.214592543818,0.660427052958,"14,219",44.58%,ID,Twin Falls County,82375,34.0,76635,45499,139900,6149.0,,16,83,5.97,4.58,5.41
155,196,14.4,6.4204166666499995,2,Adams,IL,IL-Adams,17001,-91.194961,39.986052,693,7633.0,22732.0,31770.0,0.240258105131,0.7155177840729999,"15,099",47.53%,IL,Adams County,67013,40.8,62245,46528,117600,5771.0,,17,1,4.22,4.12,4.78
156,197,327.321,7.0767090002627935,44,Champaign,IL,IL-Champaign,17019,-88.197201,40.13915,702,49694.0,33235.0,89196.0,0.557132606843,0.372606394906,"16,459",18.45%,IL,Champaign County,208861,29.7,150037,50252,157800,26409.0,71275.0,17,19,4.03,4.05,4.7
157,198,14532.110999999995,7.8131577006066655,364,Cook,IL,IL-Cook,17031,-87.645455,41.894294,708,1528582.0,440213.0,2055215.0,0.743757709047,0.214193162273,"1,088,369",52.96%,IL,Cook County,5238216,36.3,2951389,56851,230900,790748.0,1527978.0,17,31,3.72,3.89,4.5
158,199,12.578,9.47,4,DeKalb,IL,IL-DeKalb,17037,-88.768991,41.894612,711,20348.0,19051.0,42605.0,0.477596526229,0.447154089896,"1,297",3.04%,IL,DeKalb County,104352,30.7,87553,55471,162600,11528.0,,17,37,3.74,3.86,4.43
159,200,478.608,5.861989641351853,27,DuPage,IL,IL-DuPage,17043,-88.086038,41.852058,714,222499.0,164355.0,412929.0,0.538831130776,0.398022420319,"58,144",14.08%,IL,DuPage County,933736,39.1,729248,81559,293500,172558.0,371199.0,17,43,3.73,3.87,4.49
160,201,93.5,6.421992628766668,15,Kane,IL,IL-Kane,17089,-88.42804,41.939594,737,99389.0,82087.0,193500.0,0.513638242894,0.424222222222,"17,302",8.94%,IL,Kane County,530847,36.7,388540,70359,229000,68417.0,211724.0,17,89,3.71,3.85,4.42
161,202,7.8,3.6964102563999996,1,Kankakee,IL,IL-Kankakee,17091,-87.861125,41.139494,738,18908.0,25081.0,46556.0,0.406134547642,0.5387275539140001,"6,173",13.26%,IL,Kankakee County,110879,37.1,87939,53850,136300,9542.0,,17,91,3.77,3.92,4.52
162,203,83.02400000000002,7.0179402370562505,16,Kendall,IL,IL-Kendall,17093,-88.430626,41.58814,739,23392.0,24152.0,50815.0,0.460336514809,0.475292728525,760,1.50%,IL,Kendall County,123355,33.3,103479,85979,210500,,,17,93,3.83,3.91,4.51
163,205,79.057,6.302153593215788,19,LaSalle,IL,IL-LaSalle,17099,-88.885931,41.343341,742,19277.0,26269.0,48447.0,0.3978987347,0.542221396578,"6,992",14.43%,IL,LaSalle County,111333,41.7,103860,51936,131400,8460.0,,17,99,3.87,3.92,4.54
164,205,79.057,6.302153593215788,19,LaSalle,IL,IL-LaSalle,17099,-88.885931,41.343341,742,19277.0,26269.0,48447.0,0.3978987347,0.542221396578,"6,992",14.43%,IL,LaSalle County,111333,41.7,103860,51936,131400,8460.0,,17,99,3.87,3.92,4.54
163,205,20.98,3.773333333333333,3,LaSalle,IL,IL-LaSalle,17099,-88.885931,41.343341,742,19277.0,26269.0,48447.0,0.3978987347,0.542221396578,"6,992",14.43%,IL,LaSalle County,111333,41.7,103860,51936,131400,8460.0,,17,99,3.87,3.92,4.54
164,205,20.98,3.773333333333333,3,LaSalle,IL,IL-LaSalle,17099,-88.885931,41.343341,742,19277.0,26269.0,48447.0,0.3978987347,0.542221396578,"6,992",14.43%,IL,LaSalle County,111333,41.7,103860,51936,131400,8460.0,,17,99,3.87,3.92,4.54
165,204,557.21,6.3913362116382695,81,Lake,IL,IL-Lake,17097,-87.43611800000002,42.326444,741,168186.0,108608.0,293574.0,0.572891332339,0.369951017461,"59,578",20.29%,IL,Lake County,703910,38.2,563399,82113,258100,118173.0,277379.0,17,97,3.66,3.84,4.39
166,208,54.44,8.44063463487,10,Macon,IL,IL-Macon,17115,-88.961529,39.860237,747,18211.0,26782.0,47283.0,0.385148996468,0.566419220439,"8,571",18.13%,IL,Macon County,107303,40.8,82873,48040,98200,11873.0,,17,115,4.12,4.08,4.71
167,209,926.2199999999997,7.004124393780702,58,Madison,IL,IL-Madison,17119,-89.900195,38.827082,749,50336.0,70295.0,127902.0,0.393551312724,0.549600475364,"19,959",15.60%,IL,Madison County,266209,39.8,233920,52664,130300,28597.0,104951.0,17,119,4.31,4.2,4.85
168,206,541.63,6.518950275200001,38,McHenry,IL,IL-McHenry,17111,-88.45224499999998,42.324298,755,59827.0,71117.0,140145.0,0.426893574512,0.507452995112,"11,290",8.06%,IL,McHenry County,307343,40.1,282092,80125,205300,44588.0,132986.0,17,111,3.75,3.84,4.45
169,207,29.15,5.850592859400001,6,McLean,IL,IL-McLean,17113,-88.844539,40.494559,756,35918.0,37081.0,78995.0,0.454687005507,0.469409456295,"1,163",1.47%,IL,McLean County,173166,33.0,144111,65304,168500,31368.0,73168.0,17,113,4.0,4.03,4.64
170,210,269.562,8.038164938562858,35,Peoria,IL,IL-Peoria,17143,-89.767358,40.785999,764,37436.0,35299.0,77465.0,0.483263409282,0.455676757245,"2,137",2.76%,IL,Peoria County,186221,36.5,135122,53837,136500,22533.0,68022.0,17,143,4.0,4.01,4.64
171,211,650.5319999999998,6.946629517722223,9,Rock Island,IL,IL-Rock Island,17161,-90.572203,41.468404,773,32258.0,26969.0,62971.0,0.51226755173,0.428276508234,"5,289",8.40%,IL,Rock Island County,146133,40.3,119934,50542,113400,14473.0,55825.0,17,161,4.07,3.98,4.64
172,213,285.574,5.487976226238777,49,Sangamon,IL,IL-Sangamon,17167,-89.662311,39.75637800000001,775,40731.0,49823.0,96472.0,0.42220540675,0.516450369019,"9,092",9.42%,IL,Sangamon County,198712,39.4,163055,57576,133700,30317.0,75940.0,17,167,4.24,4.14,4.8
173,212,114.715,5.5429062383800005,10,St. Clair,IL,IL-St. Clair,17163,-89.928546,38.470198,779,60180.0,53479.0,119201.0,0.504861536397,0.448645565054,"6,701",5.62%,IL,St. Clair County,264052,37.7,171465,50347,115000,29036.0,99967.0,17,163,4.35,4.23,4.87
174,212,114.715,5.5429062383800005,10,St. Clair,IL,IL-St. Clair,17163,-89.928546,38.470198,779,60180.0,53479.0,119201.0,0.504861536397,0.448645565054,"6,701",5.62%,IL,St. Clair County,264052,37.7,171465,50347,115000,29036.0,99967.0,17,163,4.35,4.23,4.87
173,212,110.21,5.628789987789999,11,St. Clair,IL,IL-St. Clair,17163,-89.928546,38.470198,779,60180.0,53479.0,119201.0,0.504861536397,0.448645565054,"6,701",5.62%,IL,St. Clair County,264052,37.7,171465,50347,115000,29036.0,99967.0,17,163,4.35,4.23,4.87
174,212,110.21,5.628789987789999,11,St. Clair,IL,IL-St. Clair,17163,-89.928546,38.470198,779,60180.0,53479.0,119201.0,0.504861536397,0.448645565054,"6,701",5.62%,IL,St. Clair County,264052,37.7,171465,50347,115000,29036.0,99967.0,17,163,4.35,4.23,4.87
175,214,46.45600000000001,8.4596167356625,8,Tazewell,IL,IL-Tazewell,17179,-89.51626,40.508074,782,20568.0,38620.0,63347.0,0.324687830521,0.609657915923,"18,052",28.50%,IL,Tazewell County,134800,40.4,129150,57020,138900,16133.0,55112.0,17,179,4.05,4.04,4.67
176,215,44.96000000000001,7.175560105783332,6,Vermilion,IL,IL-Vermilion,17183,-87.726771,40.18674,784,9876.0,18582.0,29799.0,0.331420517467,0.623577972415,"8,706",29.22%,IL,Vermilion County,79282,39.3,65527,45098,73800,4723.0,,17,183,3.96,4.04,4.63
177,216,1265.95,7.810241930775,29,Will,IL,IL-Will,17197,-87.97845600000002,41.448474,791,146230.0,129726.0,291010.0,0.502491323322,0.445778495584,"16,504",5.67%,IL,Will County,687263,37.4,507289,75992,213700,97193.0,281796.0,17,197,3.7,3.88,4.46
178,217,22.45,8.2722743031,7,Williamson,IL,IL-Williamson,17199,-88.930018,37.730353,792,8539.0,21503.0,31422.0,0.271752275476,0.684329450703,"12,964",41.26%,IL,Williamson County,67466,40.3,61520,48736,97400,5896.0,,17,199,4.22,4.23,4.81
179,218,165.25499999999997,6.8558266486625,32,Winnebago,IL,IL-Winnebago,17201,-89.16120500000002,42.33739600000001,793,52595.0,53922.0,113027.0,0.465331292523,0.477071850089,"1,327",1.17%,IL,Winnebago County,287078,39.7,225216,49578,117800,28472.0,109931.0,17,201,3.8,3.85,4.45
180,219,23.7,6.38,4,Allen,IN,IN-Allen,18003,-85.07223,41.091855,796,55222.0,83801.0,145787.0,0.378785488418,0.5748180564800001,"28,579",19.60%,IN,Allen County,368450,35.8,294139,49754,123100,44035.0,145092.0,18,3,3.59,3.87,4.41
181,220,38.35,4.696000000000001,8,Bartholomew,IN,IN-Bartholomew,18005,-85.897999,39.205843,797,9841.0,20637.0,32389.0,0.303837722684,0.637160764457,"10,796",33.33%,IN,Bartholomew County,81162,38.3,71122,54447,136800,9944.0,,18,5,3.94,4.06,4.64
182,221,23.980000000000004,3.4177494711116534,7,Clark,IN,IN-Clark,18019,-85.711122,38.476217,804,18791.0,30012.0,51104.0,0.367701158422,0.587273011897,"11,221",21.96%,IN,Clark County,115371,38.8,100938,51828,137500,12867.0,,18,19,4.03,4.12,4.69
183,222,3.86,24.12,2,Delaware,IN,IN-Delaware,18035,-85.39885600000002,40.227165,812,18100.0,24217.0,44699.0,0.4049307590770001,0.541779458153,"6,117",13.68%,IN,Delaware County,116852,35.3,103006,40606,94100,10226.0,40931.0,18,35,3.74,3.95,4.51
184,223,670.4399999999995,5.924838709677421,43,Elkhart,IN,IN-Elkhart,18039,-85.863986,41.600693,814,20667.0,41810.0,65187.0,0.317041741452,0.6413855523340001,"21,143",32.43%,IN,Elkhart County,203474,35.3,178528,49556,134900,14861.0,71625.0,18,39,3.56,3.83,4.36
185,224,8.49,9.32,5,Floyd,IN,IN-Floyd,18043,-85.911474,38.317936,816,13939.0,21427.0,37225.0,0.374452652787,0.575607790463,"7,488",20.12%,IN,Floyd County,76778,40.2,69206,58096,159900,8659.0,,18,43,4.13,4.15,4.74
186,226,76.03,8.23,4,Hamilton,IN,IN-Hamilton,18057,-86.020586,40.04987,823,57214.0,87299.0,153630.0,0.37241424201,0.5682418798409999,"30,085",19.58%,IN,Hamilton County,309697,36.6,271218,90613,235500,71657.0,138642.0,18,57,3.84,3.99,4.55
187,227,28.32,4.445,3,Hancock,IN,IN-Hancock,18059,-85.772904,39.822604,824,8901.0,25050.0,36027.0,0.247064701474,0.695311849446,"16,149",44.82%,IN,Hancock County,72520,39.3,68374,69968,154700,10692.0,,18,59,3.85,4.0,4.57
188,229,24.254,7.64,6,Howard,IN,IN-Howard,18067,-86.114118,40.483537,828,11215.0,23675.0,36754.0,0.305136855852,0.644147575774,"12,460",33.90%,IN,Howard County,82556,42.7,72425,46793,100800,6666.0,,18,67,3.77,3.95,4.52
189,230,198.49,10.125,4,Johnson,IN,IN-Johnson,18081,-86.0946,39.495986,835,17318.0,45456.0,66229.0,0.261486659922,0.686345860575,"28,138",42.49%,IN,Johnson County,149633,36.8,136723,68744,148400,22693.0,,18,81,3.99,4.07,4.66
190,231,36.11,5.0,5,Kosciusko,IN,IN-Kosciusko,18085,-85.861575,41.244293,837,6311.0,23909.0,31907.0,0.197793587614,0.7493340019429999,"17,598",55.15%,IN,Kosciusko County,78620,37.5,74287,52888,141100,6998.0,,18,85,3.59,3.86,4.39
191,233,6.0,3.4177494711116534,1,LaPorte,IN,IN-LaPorte,18091,-86.744729,41.549011,840,19795.0,22678.0,44994.0,0.439947548562,0.50402275859,"2,883",6.41%,IN,LaPorte County,110884,40.2,91608,45838,126000,8418.0,37178.0,18,91,3.62,3.85,4.38
192,232,79.86999999999998,5.625,4,Lake,IN,IN-Lake,18089,-87.374337,41.472239,839,116896.0,75565.0,200247.0,0.5837590575639999,0.377358961682,"41,331",20.64%,IN,Lake County,487865,38.5,298738,50582,138900,48176.0,174210.0,18,89,3.7,3.89,4.47
193,234,3.9,3.59,1,Madison,IN,IN-Madison,18095,-85.722454,40.166203,842,18595.0,32376.0,53660.0,0.346533730898,0.603354453969,"13,781",25.68%,IN,Madison County,129723,39.9,114069,45257,88400,11077.0,47491.0,18,95,3.78,3.96,4.52
194,235,2315.54,5.46,17,Marion,IN,IN-Marion,18097,-86.13579399999998,39.782976,843,212676.0,130228.0,361070.0,0.589015980281,0.360672445786,"82,448",22.83%,IN,Marion County,939020,34.2,599418,41226,122400,117946.0,366276.0,18,97,3.88,4.01,4.6
195,236,292.606,4.799,45,Monroe,IN,IN-Monroe,18105,-86.523325,39.160751,847,34183.0,20527.0,57623.0,0.593217985874,0.356229283446,"13,656",23.70%,IN,Monroe County,144705,28.0,125012,45062,163500,20004.0,50511.0,18,105,4.01,4.08,4.68
196,237,17.380000000000006,6.855,3,Morgan,IN,IN-Morgan,18109,-86.447457,39.482646,849,6037.0,23671.0,31180.0,0.193617703656,0.759172546504,"17,634",56.56%,IN,Morgan County,69648,41.4,67878,58755,156900,4705.0,,18,109,3.92,4.04,4.62
197,238,62.63500000000001,3.875,8,Porter,IN,IN-Porter,18127,-87.071308,41.509922,858,33531.0,38719.0,76492.0,0.438359567014,0.506183653192,"5,188",6.78%,IN,Porter County,167688,39.0,152922,63807,174700,18629.0,,18,127,3.69,3.88,4.45
198,239,208.995,5.988333333333332,12,St. Joseph,IN,IN-St. Joseph,18141,-86.288159,41.617699,868,52247.0,52019.0,109452.0,0.477350802178,0.475267697255,228,0.21%,IN,St. Joseph County,268441,36.2,213013,46552,122600,29848.0,96762.0,18,141,3.6,3.84,4.39
199,240,25.496,7.6099999999999985,4,Tippecanoe,IN,IN-Tippecanoe,18157,-86.89394300000002,40.38926,873,27207.0,30711.0,61916.0,0.439417921054,0.496010724207,"3,504",5.66%,IN,Tippecanoe County,185826,28.0,154369,50224,144100,19148.0,68985.0,18,157,3.78,3.96,4.54
200,241,109.42499999999998,7.242499999999998,21,Vanderburgh,IN,IN-Vanderburgh,18163,-87.586166,38.02007,876,28296.0,40422.0,71957.0,0.39323484859,0.561752157539,"12,126",16.85%,IN,Vanderburgh County,181877,37.7,155669,42564,118600,19482.0,75478.0,18,163,4.11,4.18,4.76
201,242,29.950000000000006,6.9,3,Vigo,IN,IN-Vigo,18167,-87.390375,39.429143,878,15922.0,21924.0,39569.0,0.402385705982,0.554070105386,"6,002",15.17%,IN,Vigo County,107896,35.9,94375,38632,88000,10255.0,,18,167,3.99,4.07,4.66
202,243,1.48,3.4177494711116534,1,Wayne,IN,IN-Wayne,18177,-85.00673499999998,39.863091,883,8322.0,16028.0,25575.0,0.325395894428,0.626705767351,"7,706",30.13%,IN,Wayne County,67001,41.3,59770,42160,102400,3703.0,,18,177,3.77,3.97,4.51
203,244,206.4,12.22,1,Black Hawk,IA,IA-Black Hawk,19013,-92.306059,42.472888,556,32006.0,27382.0,63221.0,0.506255832714,0.433115578684,"4,624",7.31%,IA,Black Hawk County,133455,34.6,110880,50169,140500,15594.0,54501.0,19,13,4.04,3.9,4.55
204,246,449.4,5.36,9,Dubuque,IA,IA-Dubuque,19061,-90.878771,42.463481,580,22774.0,23384.0,49037.0,0.464424822073,0.476864408508,610,1.24%,IA,Dubuque County,97125,38.5,89826,58487,161700,13488.0,41283.0,19,61,3.96,3.87,4.51
205,247,19.3,4.246666666666667,3,Johnson,IA,IA-Johnson,19103,-91.588812,41.668736,601,49942.0,20993.0,75637.0,0.6602853101,0.277549347542,"28,949",38.27%,IA,Johnson County,144251,30.0,119451,55913,196900,22232.0,56476.0,19,103,4.02,3.94,4.59
206,248,32.41,4.551666666666667,6,Linn,IA,IA-Linn,19113,-91.597674,42.077951,606,58481.0,48183.0,114664.0,0.510020581874,0.420210353729,"10,298",8.98%,IA,Linn County,219916,37.5,195934,57073,149600,30086.0,98763.0,19,113,3.98,3.91,4.55
207,249,45.54,6.02,1,Polk,IA,IA-Polk,19153,-93.56972,41.684281,626,119671.0,93421.0,228420.0,0.5239077138600001,0.408987829437,"26,250",11.49%,IA,Polk County,467711,35.2,398389,60176,159800,75126.0,206667.0,19,153,4.11,3.97,4.63
208,255,98.18,11.67,6,Douglas,KS,KS-Douglas,20045,-95.290529,38.896573,909,30089.0,14308.0,48231.0,0.6238518794969999,0.296655677884,"15,781",32.72%,KS,Douglas County,118053,29.5,98451,52964,179700,16688.0,48784.0,20,45,4.61,4.27,4.99
209,256,152.84,8.885,7,Johnson,KS,KS-Johnson,20091,-94.82233,38.883907,932,126324.0,133907.0,279753.0,0.451555479298,0.478661533567,"7,583",2.71%,KS,Johnson County,580159,37.4,501387,82892,230900,136152.0,263376.0,20,91,4.6,4.28,4.98
210,258,512.0,9.714172541884617,2,Riley,KS,KS-Riley,20161,-96.727489,39.291211,967,8892.0,9817.0,20475.0,0.434285714286,0.479462759463,925,4.52%,KS,Riley County,75247,24.7,61467,46677,187400,,,20,161,4.93,4.41,5.21
211,259,36.4,9.714172541884617,2,Sedgwick,KS,KS-Sedgwick,20173,-97.459451,37.683807,973,66716.0,101319.0,180750.0,0.369106500692,0.560547717842,"34,603",19.14%,KS,Sedgwick County,511574,34.9,406029,50840,129900,57757.0,207788.0,20,173,5.1,4.57,5.34
212,265,6.14,6.1898643924733046,3,Christian,KY,KY-Christian,21047,-87.493554,36.893388,1015,7188.0,14108.0,22069.0,0.325705741085,0.639267751144,"6,920",31.36%,KY,Christian County,73309,28.3,53061,39827,104500,3738.0,,21,47,4.13,4.24,4.81
213,268,4.2,6.96,1,Hardin,KY,KY-Hardin,21093,-85.963183,37.695836,1038,13944.0,26970.0,43113.0,0.323429128105,0.625565374713,"13,026",30.21%,KY,Hardin County,106439,35.8,85308,49229,145300,8342.0,,21,93,4.06,4.17,4.73
214,269,28.64,5.755,4,Jefferson,KY,KY-Jefferson,21111,-85.657624,38.189533,1047,190824.0,143758.0,352778.0,0.540918084461,0.407502735431,"47,066",13.34%,KY,Jefferson County,763623,38.1,555775,51259,155700,105048.0,296589.0,21,111,4.01,4.12,4.7
215,270,458.99,6.88,2,Kenton,KY,KY-Kenton,21117,-84.53349200000002,38.930477,1050,24213.0,42958.0,71905.0,0.336735971073,0.597427160837,"18,745",26.07%,KY,Kenton County,165012,36.5,148559,52043,148000,19149.0,66258.0,21,117,4.0,4.08,4.66
216,274,2352.5,6.195,4,Warren,KY,KY-Warren,21227,-86.423579,36.995634,1105,16966.0,28673.0,48416.0,0.350421348315,0.592221579643,"11,707",24.18%,KY,Warren County,122851,33.4,99712,44679,144100,14582.0,,21,227,4.06,4.2,4.77
217,275,12.44,7.34,3,Ascension,LA,LA-Ascension,22005,-90.910023,30.202946,1114,16471.0,36135.0,54663.0,0.301318990908,0.66105043631,"19,664",35.97%,LA,Ascension Parish,119455,34.5,87520,76632,183300,14477.0,,22,5,4.38,4.66,5.14
218,278,2.0,10.0,2,Calcasieu,LA,LA-Calcasieu,22019,-93.358015,30.229559,1121,26293.0,54182.0,83773.0,0.313860074248,0.646771632865,"27,889",33.29%,LA,Calcasieu Parish,198788,35.9,139369,45767,140600,19265.0,76773.0,22,19,4.25,4.55,5.0
219,279,135.29000000000005,8.248285714285714,38,East Baton Rouge,LA,LA-East Baton Rouge,22033,-91.093174,30.544002000000006,1128,102711.0,84620.0,196332.0,0.523149562985,0.431004624819,"18,091",9.21%,LA,East Baton Rouge Parish,446753,33.6,212567,50519,189800,60918.0,177894.0,22,33,4.35,4.63,5.11
220,280,2.4,4.53,1,Iberia,LA,LA-Iberia,22045,-91.842706,29.606013,1134,10698.0,20903.0,32454.0,0.329635792198,0.644080852899,"10,205",31.44%,LA,Iberia Parish,74103,34.9,45514,46365,95800,3416.0,,22,45,4.65,4.82,5.32
221,281,119.72,10.008888888888887,30,Jefferson,LA,LA-Jefferson,22051,-90.036231,29.5033,1137,73540.0,100292.0,181388.0,0.405429245595,0.5529141949849999,"26,752",14.75%,LA,Jefferson Parish,436275,39.0,278251,49576,181400,53196.0,168352.0,22,51,4.7,4.85,5.37
222,282,33.43,8.486666666666666,6,Lafayette,LA,LA-Lafayette,22055,-92.06417,30.206507,1139,32726.0,68191.0,105599.0,0.309908237767,0.645754221157,"35,465",33.58%,LA,Lafayette Parish,240098,34.5,167409,51981,172300,33191.0,100544.0,22,55,4.37,4.64,5.11
223,284,18.9,8.24,4,Livingston,LA,LA-Livingston,22063,-90.727474,30.440419,1143,6950.0,48797.0,57700.0,0.120450606586,0.845701906412,"41,847",72.53%,LA,Livingston Parish,137788,35.4,125646,58677,159600,13825.0,,22,63,4.35,4.63,5.11
224,285,863.920000000002,7.813499999999999,201,Orleans,LA,LA-Orleans,22071,-89.93900699999998,30.068636,1147,133833.0,24267.0,165619.0,0.8080775756399999,0.146523043854,"109,566",66.16%,LA,Orleans Parish,389617,35.9,134004,39077,216800,55489.0,125398.0,22,71,4.27,4.65,5.13
225,286,19.34,4.24,1,Ouachita,LA,LA-Ouachita,22073,-92.154798,32.477495000000005,1148,24420.0,41712.0,67987.0,0.359186315031,0.613529057026,"17,292",25.43%,LA,Ouachita Parish,156761,35.1,93525,36709,130200,17540.0,55056.0,22,73,4.41,4.57,5.08
226,287,27.35,9.567142857142855,7,Rapides,LA,LA-Rapides,22079,-92.535953,31.193204,1151,18318.0,36814.0,56838.0,0.322284387206,0.6477004820719999,"18,496",32.54%,LA,Rapides Parish,132141,37.5,84401,43222,139400,9390.0,,22,79,4.34,4.56,5.04
227,288,30.58,8.8475,4,St. Landry,LA,LA-St. Landry,22097,-91.989274,30.583441,1160,17208.0,21966.0,39970.0,0.430522892169,0.549562171629,"4,758",11.90%,LA,St. Landry Parish,83848,36.6,46055,30286,89400,4952.0,,22,97,4.34,4.62,5.1
228,289,165.11,8.145789473684209,21,St. Tammany,LA,LA-St. Tammany,22103,-89.951962,30.410022,1163,27716.0,90914.0,124389.0,0.222817130132,0.7308845637479999,"63,198",50.81%,LA,St. Tammany Parish,250088,39.7,209032,63180,204700,34741.0,94788.0,22,103,4.38,4.64,5.12
229,290,33.02,8.808333333333334,8,Tangipahoa,LA,LA-Tangipahoa,22105,-90.406633,30.621581,1164,16869.0,33933.0,52381.0,0.322044252687,0.6478112292629999,"17,064",32.58%,LA,Tangipahoa Parish,128755,34.9,86895,42962,136700,11105.0,,22,105,4.4,4.64,5.13
230,292,92.67,4.900976783075,9,Androscoggin,ME,ME-Androscoggin,23001,-70.207435,44.167681,1214,22975.0,28189.0,55340.0,0.415160823997,0.509378388146,"5,214",9.42%,ME,Androscoggin County,107233,40.7,98649,50338,147500,10115.0,,23,1,3.92,3.71,4.45
231,293,68.72999999999999,4.377816594,4,Aroostook,ME,ME-Aroostook,23003,-68.64941,46.727057,1215,13377.0,19419.0,34963.0,0.38260446758,0.555415725195,"6,042",17.28%,ME,Aroostook County,68628,48.1,65371,36596,104200,6298.0,,23,3,3.95,3.48,4.25
232,294,1097.4380000000003,4.071540004004395,196,Cumberland,ME,ME-Cumberland,23005,-70.330375,43.808348,1216,102935.0,57697.0,171249.0,0.601083801949,0.33691875573,"45,238",26.42%,ME,Cumberland County,289977,42.4,267044,64215,261300,61048.0,123717.0,23,5,4.09,3.78,4.56
233,295,676.2500000000001,4.015971194135001,45,Kennebec,ME,ME-Kennebec,23011,-69.765764,44.417012,1219,29296.0,31753.0,65999.0,0.443885513417,0.481113350202,"2,457",3.72%,ME,Kennebec County,119980,44.4,115200,51335,151900,15079.0,,23,11,3.92,3.7,4.45
234,296,187.671,4.313903809582609,27,Penobscot,ME,ME-Penobscot,23019,-68.657487,45.390602,1223,32832.0,41601.0,80228.0,0.409233684001,0.518534676173,"8,769",10.93%,ME,Penobscot County,152692,41.7,145093,44173,143100,17051.0,52645.0,23,19,4.01,3.62,4.41
235,297,634.4,4.2343416161714265,76,York,ME,ME-York,23031,-70.670402,43.427239,1229,55828.0,50388.0,113962.0,0.489882592443,0.442147382461,"5,440",4.77%,ME,York County,201169,45.0,192849,61613,238300,31851.0,85784.0,23,31,4.07,3.81,4.59
236,298,673.8199999999998,5.58685827341,40,Allegany,MD,MD-Allegany,24001,-78.703108,39.612309,1190,6665.0,20025.0,27804.0,0.239713710258,0.720220112214,"13,360",48.05%,MD,Allegany County,72528,41.4,63861,38281,115500,4692.0,,24,1,3.68,3.9,4.52
237,299,13205.67299999998,6.493840165250118,1289,Anne Arundel,MD,MD-Anne Arundel,24003,-76.560511,38.993374,1191,116074.0,114509.0,242939.0,0.477790721128,0.471348774795,"1,565",0.64%,MD,Anne Arundel County,564195,37.9,421578,91230,345900,83940.0,237040.0,24,3,4.13,4.15,4.84
238,300,11929.638999999968,6.079122377442692,1301,Baltimore,MD,MD-Baltimore,24005,-76.616569,39.443167,1192,189437.0,131009.0,335017.0,0.565454887364,0.391051797371,"58,428",17.44%,MD,Baltimore County,831128,38.8,519527,68775,250200,127582.0,324641.0,24,5,4.0,4.07,4.76
239,313,4825.367,6.870044672142526,268,Baltimore city,MD,MD-Baltimore city,24510,-76.610516,39.300213,1193,178562.0,22726.0,208980.0,0.854445401474,0.108747248541,"155,836",74.57%,MD,Baltimore city,621849,34.7,193032,44165,155600,70616.0,155514.0,24,510,4.08,4.1,4.81
240,301,1114.8710000000003,6.455452824979581,143,Calvert,MD,MD-Calvert,24009,-76.525864,38.521357,1194,16669.0,24680.0,43445.0,0.383680515594,0.568074577051,"8,011",18.44%,MD,Calvert County,90595,40.6,74404,106247,345300,10955.0,,24,9,4.26,4.21,4.91
241,302,6028.368999999998,6.00469127464778,593,Carroll,MD,MD-Carroll,24013,-77.015512,39.563189,1196,24314.0,55593.0,84879.0,0.28645483570700003,0.6549676598449999,"31,279",36.85%,MD,Carroll County,167627,42.5,154496,84887,330700,24989.0,,24,13,4.0,4.06,4.73
242,303,4593.634999999998,6.0037220431054825,241,Cecil,MD,MD-Cecil,24015,-75.94158399999998,39.562352,1197,12651.0,27579.0,42309.0,0.299014394101,0.651847124725,"14,928",35.28%,MD,Cecil County,102382,39.9,90516,70676,242500,8965.0,,24,15,4.05,4.09,4.78
243,304,7975.6990000000005,5.942520440222669,154,Charles,MD,MD-Charles,24017,-77.015427,38.472853,1198,46063.0,24163.0,72480.0,0.635527041943,0.333374724062,"21,900",30.22%,MD,Charles County,156118,37.9,71819,88700,287900,16367.0,66378.0,24,17,4.28,4.23,4.93
244,305,23273.863999999998,5.770434900781412,504,Frederick,MD,MD-Frederick,24021,-77.397626,39.470427,1200,51891.0,56472.0,114962.0,0.451375237035,0.491223186792,"4,581",3.98%,MD,Frederick County,245322,39.3,198982,83819,311800,36689.0,103363.0,24,21,3.97,4.06,4.73
245,306,9562.692,6.009245259472444,548,Harford,MD,MD-Harford,24025,-76.299789,39.537429,1202,43803.0,74261.0,124224.0,0.352613021638,0.597799137043,"30,458",24.52%,MD,Harford County,250290,40.5,199018,78050,290600,35999.0,106235.0,24,25,4.08,4.09,4.78
246,307,11050.402999999988,6.185338029264653,1331,Howard,MD,MD-Howard,24027,-76.924406,39.252264,1203,93808.0,44792.0,146401.0,0.640760650542,0.305954194302,"49,016",33.48%,MD,Howard County,313414,38.9,183413,110892,441000,64030.0,134973.0,24,27,4.13,4.12,4.82
247,308,18158.67899999996,6.528629193972481,2596,Montgomery,MD,MD-Montgomery,24031,-77.203063,39.137381,1205,309761.0,82985.0,408300.0,0.7586602988,0.20324516287,"226,776",55.54%,MD,Montgomery County,1040116,38.9,564151,98917,474900,193803.0,359032.0,24,31,4.28,4.15,4.87
248,309,9574.88900000001,6.067438615787798,1005,Prince George's,MD,MD-Prince George's,24033,-76.847272,38.82588,1206,313627.0,29290.0,351091.0,0.893292622141,0.0834256645713,"284,337",80.99%,MD,Prince George's County,909535,36.2,154895,76741,272200,115768.0,308502.0,24,33,4.18,4.15,4.87
249,310,1356.8269999999993,4.98139227680154,130,St. Mary's,MD,MD-St. Mary's,24037,-76.53427099999998,38.222666,1209,15786.0,26889.0,45169.0,0.349487480352,0.595297659899,"11,103",24.58%,MD,St. Mary's County,111413,37.1,88245,85163,293700,15080.0,,24,37,4.32,4.26,4.96
250,310,1356.8269999999993,4.98139227680154,130,St. Mary's,MD,MD-St. Mary's,24037,-76.53427099999998,38.222666,1209,15786.0,26889.0,45169.0,0.349487480352,0.595297659899,"11,103",24.58%,MD,St. Mary's County,111413,37.1,88245,85163,293700,15080.0,,24,37,4.32,4.26,4.96
249,310,909.29,6.230807231984312,54,St. Mary's,MD,MD-St. Mary's,24037,-76.53427099999998,38.222666,1209,15786.0,26889.0,45169.0,0.349487480352,0.595297659899,"11,103",24.58%,MD,St. Mary's County,111413,37.1,88245,85163,293700,15080.0,,24,37,4.32,4.26,4.96
250,310,909.29,6.230807231984312,54,St. Mary's,MD,MD-St. Mary's,24037,-76.53427099999998,38.222666,1209,15786.0,26889.0,45169.0,0.349487480352,0.595297659899,"11,103",24.58%,MD,St. Mary's County,111413,37.1,88245,85163,293700,15080.0,,24,37,4.32,4.26,4.96
251,311,3911.157000000001,5.7739599141194144,210,Washington,MD,MD-Washington,24043,-77.81467099999998,39.603621,1211,19193.0,38842.0,60731.0,0.316032997975,0.639574517133,"19,649",32.35%,MD,Washington County,149585,40.4,123543,55979,206900,13224.0,52215.0,24,43,3.85,4.01,4.65
252,312,2839.245000000001,5.16138566080776,120,Wicomico,MD,MD-Wicomico,24045,-75.63220600000002,38.367389,1212,16327.0,20832.0,38722.0,0.421646609163,0.537988740251,"4,505",11.63%,MD,Wicomico County,102370,36.2,69912,54781,176000,9790.0,,24,45,4.25,4.21,4.92
253,314,90050.0669999996,5.630859759545936,4961,Barnstable,MA,MA-Barnstable,25001,-70.211083,41.798819,1176,71632.0,53842.0,132667.0,0.539938341863,0.405843201399,"17,790",13.41%,MA,Barnstable County,214333,52.4,198849,66102,375300,38969.0,83692.0,25,1,3.66,3.84,4.48
254,315,52557.88,5.278404106534973,1547,Berkshire,MA,MA-Berkshire,25003,-73.213948,42.375314,1177,43540.0,16799.0,64507.0,0.674965507619,0.260421349621,"26,741",41.45%,MA,Berkshire County,127828,46.6,116652,50765,209400,17060.0,46316.0,25,3,3.62,3.71,4.34
255,316,255169.80200000046,4.902855622505494,6443,Bristol,MA,MA-Bristol,25005,-71.087062,41.748576,1178,127619.0,104775.0,246068.0,0.51863306078,0.425796934181,"22,844",9.28%,MA,Bristol County,556772,40.9,475548,60183,275000,65050.0,218630.0,25,5,3.82,3.87,4.59
256,317,131956.62999999966,5.355689899823264,7113,Essex,MA,MA-Essex,25009,-70.865107,42.642711,1180,220027.0,135405.0,376140.0,0.58496038709,0.35998564364299995,"84,622",22.50%,MA,Essex County,776043,40.6,620715,68455,374400,121342.0,289305.0,25,9,3.8,3.82,4.52
257,318,49510.00599999978,5.861152665745799,1775,Franklin,MA,MA-Franklin,25011,-72.591655,42.583791,1181,24369.0,10327.0,37987.0,0.6415089372680001,0.271856161318,"14,042",36.97%,MA,Franklin County,70601,45.3,66070,58613,226800,10096.0,,25,11,3.57,3.74,4.38
258,319,165261.78200000012,4.927201127931711,2512,Hampden,MA,MA-Hampden,25013,-72.635648,42.136198,1182,110313.0,78230.0,200220.0,0.55095894516,0.390720207771,"32,083",16.02%,MA,Hampden County,470690,38.4,382969,51514,197900,48921.0,178516.0,25,13,3.69,3.8,4.5
259,320,43507.843000000066,5.304161062955432,3113,Hampshire,MA,MA-Hampshire,25015,-72.66369399999998,42.33945900000001,1183,54572.0,22089.0,82329.0,0.662852700749,0.268301570528,"32,483",39.46%,MA,Hampshire County,161292,37.1,142184,60583,281700,23715.0,60102.0,25,15,3.72,3.8,4.49
260,321,314519.9480000022,5.319111311183778,16989,Middlesex,MA,MA-Middlesex,25017,-71.396507,42.479477,1184,508919.0,216163.0,767337.0,0.663227499782,0.2817054306,"292,756",38.15%,MA,Middlesex County,1585139,38.5,1239864,90267,450800,290235.0,574217.0,25,17,3.78,3.81,4.53
261,322,146298.32440000016,5.0983808716483745,6007,Norfolk,MA,MA-Norfolk,25021,-71.179875,42.169702,1186,219129.0,119171.0,357781.0,0.612466844243,0.333083646141,"99,958",27.94%,MA,Norfolk County,696023,41.1,551206,94039,429200,136887.0,246463.0,25,21,3.82,3.84,4.57
262,323,192591.61100000024,5.241661365671866,5887,Plymouth,MA,MA-Plymouth,25023,-70.74194200000002,41.987196,1187,133828.0,114722.0,264168.0,0.506601859423,0.434276672421,"19,106",7.23%,MA,Plymouth County,510393,42.7,429089,75080,339800,81084.0,203234.0,25,23,3.85,3.87,4.59
263,324,46556.46999999999,5.582714299128504,3033,Suffolk,MA,MA-Suffolk,25025,-71.020173,42.33196,1188,241212.0,50042.0,303517.0,0.794723195076,0.164873796196,"191,170",62.98%,MA,Suffolk County,778121,32.6,431912,56771,432400,130353.0,163117.0,25,25,3.79,3.84,4.57
264,325,413548.1479999993,5.042972896290434,11145,Worcester,MA,MA-Worcester,25027,-71.940282,42.311693,1189,197126.0,157138.0,380972.0,0.5174291024009999,0.412466008001,"39,988",10.50%,MA,Worcester County,818963,39.8,694255,65753,257400,117640.0,321894.0,25,27,3.8,3.82,4.53
265,326,7.1,7.14,3,Allegan,MI,MI-Allegan,26005,-86.634745,42.595787,1232,17932.0,33812.0,55153.0,0.325131905789,0.6130582198610001,"15,880",28.79%,MI,Allegan County,114625,39.6,107537,55250,152500,10966.0,,26,5,3.51,3.79,4.22
266,327,9.85,7.115356527179206,1,Bay,MI,MI-Bay,26017,-83.978701,43.699711,1238,21641.0,28327.0,52932.0,0.408845310965,0.53515831633,"6,686",12.63%,MI,Bay County,105659,42.6,99946,46560,94100,9107.0,,26,17,3.64,3.77,4.31
267,328,23.110000000000007,4.95,4,Berrien,MI,MI-Berrien,26021,-86.741822,41.792639,1240,29496.0,38646.0,71882.0,0.410339166968,0.537631117665,"9,150",12.73%,MI,Berrien County,154636,42.0,121302,46649,141200,17985.0,57505.0,26,21,3.5,3.81,4.31
268,329,15.68,3.1,1,Calhoun,MI,MI-Calhoun,26025,-85.012385,42.24299,1242,24154.0,31489.0,58786.0,0.41088014153,0.535654747729,"7,335",12.48%,MI,Calhoun County,134314,39.4,110510,43084,101400,12329.0,43742.0,26,25,3.55,3.8,4.32
269,330,4.0,7.115356527179206,1,Clinton,MI,MI-Clinton,26037,-84.591695,42.950455,1248,16490.0,21635.0,40564.0,0.406518094862,0.533354698748,"5,145",12.68%,MI,Clinton County,77390,40.2,72677,63764,155200,10810.0,31668.0,26,37,3.59,3.78,4.31
270,332,13.35,7.115356527179206,4,Genesee,MI,MI-Genesee,26049,-83.706372,43.02107700000001,1254,102744.0,84174.0,196135.0,0.523843271216,0.429163586305,"18,570",9.47%,MI,Genesee County,410849,40.4,308385,44025,99200,37614.0,140638.0,26,49,3.61,3.78,4.35
271,333,102.572,6.548333333333333,13,Grand Traverse,MI,MI-Grand Traverse,26055,-85.553848,44.718688,1257,20964.0,27412.0,51460.0,0.407384376215,0.532685581034,"6,448",12.53%,MI,Grand Traverse County,91636,42.2,85988,55013,177100,13443.0,,26,55,3.79,3.71,4.31
272,334,65.734,8.517999999999999,7,Ingham,MI,MI-Ingham,26065,-84.373811,42.603534,1262,81266.0,44354.0,133478.0,0.6088344146600001,0.33229446051,"36,912",27.65%,MI,Ingham County,286085,31.7,212669,47082,124100,37411.0,103256.0,26,65,3.58,3.78,4.31
273,335,21.6,4.46,1,Isabella,MI,MI-Isabella,26073,-84.839424,43.64523300000001,1266,11404.0,12338.0,25344.0,0.449968434343,0.486821338384,934,3.69%,MI,Isabella County,70698,28.0,62694,40838,125400,5639.0,,26,73,3.6,3.75,4.28
274,336,22.41,7.115356527179206,2,Jackson,MI,MI-Jackson,26075,-84.420868,42.248474,1267,25795.0,39793.0,69567.0,0.370793623413,0.572009717251,"13,998",20.12%,MI,Jackson County,159494,41.1,139227,50783,127800,16749.0,,26,75,3.6,3.81,4.37
275,337,194.65,4.5,5,Kalamazoo,MI,MI-Kalamazoo,26077,-85.532854,42.246266,1268,67142.0,51031.0,125966.0,0.5330168458160001,0.405117253862,"16,111",12.79%,MI,Kalamazoo County,260263,34.2,210977,52164,148500,36622.0,106942.0,26,77,3.59,3.8,4.35
276,338,880.0680000000001,7.743333333333332,22,Kent,MI,MI-Kent,26081,-85.547446,43.032497,1270,138567.0,147959.0,306270.0,0.452434126751,0.483099879192,"9,392",3.07%,MI,Kent County,636369,35.1,507666,54340,151200,95554.0,258278.0,26,81,3.66,3.78,4.35
277,339,26.575000000000006,6.11,3,Lapeer,MI,MI-Lapeer,26087,-83.224325,43.088633,1273,12734.0,30037.0,45126.0,0.282187652351,0.665625138501,"17,303",38.34%,MI,Lapeer County,88373,44.2,84421,57762,154700,8072.0,,26,87,3.56,3.77,4.32
278,340,1.125,12.44,1,Lenawee,MI,MI-Lenawee,26091,-84.06685300000002,41.895915,1275,16750.0,26428.0,45895.0,0.36496350365,0.575836147729,"9,678",21.09%,MI,Lenawee County,98573,41.0,90671,48279,123600,8414.0,,26,91,3.59,3.85,4.38
279,341,16.771,4.57,4,Livingston,MI,MI-Livingston,26093,-83.91171800000002,42.602532,1276,34378.0,65665.0,105577.0,0.325620163483,0.621963116967,"31,287",29.63%,MI,Livingston County,187316,42.9,179668,76455,224300,26653.0,,26,93,3.63,3.81,4.38
280,342,231.20000000000005,6.07,8,Macomb,MI,MI-Macomb,26099,-82.91086899999998,42.671467,1279,176238.0,224589.0,418773.0,0.420843750672,0.536302483684,"48,351",11.55%,MI,Macomb County,864840,40.9,709097,54640,149000,91394.0,356415.0,26,99,3.56,3.81,4.38
281,343,10.25,8.77,1,Marquette,MI,MI-Marquette,26103,-87.584028,46.656596,1281,16042.0,14646.0,32897.0,0.487643250144,0.445207769705,"1,396",4.24%,MI,Marquette County,67215,39.5,62598,48259,153500,9184.0,,26,103,3.82,3.59,4.21
282,345,517.24,5.85,2,Monroe,MI,MI-Monroe,26115,-83.48710600000003,41.916097,1287,26859.0,43255.0,74101.0,0.362464744066,0.583730314031,"16,396",22.13%,MI,Monroe County,149568,42.6,141703,54396,145800,12722.0,57414.0,26,115,3.6,3.86,4.4
283,346,418.86,5.55,10,Muskegon,MI,MI-Muskegon,26121,-86.751892,43.289258,1290,36640.0,35962.0,77114.0,0.475140700781,0.466348522966,678,0.88%,MI,Muskegon County,172790,39.8,139335,47453,105400,15577.0,60503.0,26,121,3.56,3.77,4.23
284,347,712.5720000000001,6.41,36,Oakland,MI,MI-Oakland,26125,-83.38421,42.660452,1292,342976.0,289127.0,663255.0,0.5171103120220001,0.435921327393,"53,849",8.12%,MI,Oakland County,1242304,41.2,937743,69998,217400,222443.0,528727.0,26,125,3.6,3.81,4.38
285,348,29.655,10.64,8,Ottawa,MI,MI-Ottawa,26139,-86.655342,42.942346,1299,46276.0,90456.0,145405.0,0.318255905918,0.622096901757,"44,180",30.38%,MI,Ottawa County,279955,35.0,251024,61012,165500,36003.0,116700.0,26,139,3.55,3.78,4.22
286,349,96.25,6.655,5,Saginaw,MI,MI-Saginaw,26145,-84.05541,43.328267,1302,44395.0,45469.0,94198.0,0.471294507314,0.48269602327,"1,074",1.14%,MI,Saginaw County,193307,40.6,144418,43383,93500,16646.0,65430.0,26,145,3.62,3.78,4.33
287,351,2.07,7.115356527179206,1,Shiawassee,MI,MI-Shiawassee,26155,-84.14635200000002,42.951545,1305,12547.0,19232.0,34044.0,0.3685524615199999,0.56491599107,"6,685",19.64%,MI,Shiawassee County,68619,41.6,65964,51839,113100,5552.0,,26,155,3.66,3.81,4.36
288,350,23.7,7.5,3,St. Clair,MI,MI-St. Clair,26147,-82.668913,42.928803,1306,24553.0,49067.0,77994.0,0.314806267149,0.629112495833,"24,514",31.43%,MI,St. Clair County,159875,43.4,149328,51127,131000,13048.0,60864.0,26,147,3.51,3.77,4.3
289,352,24.3,3.6,8,Van Buren,MI,MI-Van Buren,26159,-86.305696,42.283986,1309,13258.0,17890.0,33213.0,0.399181043567,0.538644506669,"4,632",13.95%,MI,Van Buren County,75077,41.8,64916,48034,122100,7184.0,,26,159,3.44,3.76,4.2
290,353,189.91,7.253076923076922,14,Washtenaw,MI,MI-Washtenaw,26161,-83.844634,42.252327,1310,128025.0,50335.0,187201.0,0.683890577508,0.268882110672,"77,690",41.50%,MI,Washtenaw County,358880,33.7,263224,61977,234200,60088.0,125833.0,26,161,3.61,3.83,4.38
291,354,3101.788999999999,8.288235294117646,35,Wayne,MI,MI-Wayne,26163,-83.261953,42.284664,1311,517842.0,228908.0,775450.0,0.667795473596,0.295193758463,"288,934",37.26%,MI,Wayne County,1759335,37.8,941967,41557,92400,162183.0,566223.0,26,163,3.62,3.85,4.42
292,355,309.49999999999994,7.825779610642859,21,Anoka,MN,MN-Anoka,27003,-93.242723,45.27411,1314,75499.0,93341.0,184084.0,0.410133417353,0.507056561135,"17,842",9.69%,MN,Anoka County,344151,38.3,292650,73382,205300,48195.0,153723.0,27,3,4.12,3.8,4.55
293,356,109.575,9.236968843522224,16,Blue Earth,MN,MN-Blue Earth,27013,-94.064071,44.038225,1319,14428.0,15667.0,33256.0,0.433846523936,0.471102958865,"1,239",3.73%,MN,Blue Earth County,65787,29.8,60189,48350,171100,8066.0,,27,13,4.11,3.86,4.54
294,357,119.415,5.473043227444443,9,Carver,MN,MN-Carver,27019,-93.800575,44.821381,1322,21508.0,29057.0,55102.0,0.390330659504,0.527331131356,"7,549",13.70%,MN,Carver County,98741,36.5,91760,92653,291800,19106.0,,27,19,4.14,3.84,4.51
295,358,511.4599999999997,8.213687770100004,62,Dakota,MN,MN-Dakota,27037,-93.062481,44.670893,1331,110251.0,99624.0,228659.0,0.482163396149,0.435688077005,"10,627",4.65%,MN,Dakota County,414686,37.8,342805,77196,237000,80697.0,183692.0,27,37,3.95,3.77,4.41
296,359,5285.228000000003,6.611428622201824,375,Hennepin,MN,MN-Hennepin,27053,-93.475185,45.006064,1339,429283.0,191768.0,672644.0,0.638202377483,0.285095830781,"237,515",35.31%,MN,Hennepin County,1223149,36.2,898311,68935,250100,258100.0,487855.0,27,53,4.15,3.82,4.57
297,360,121.60700000000001,8.309359844446153,21,Olmsted,MN,MN-Olmsted,27109,-92.406722,44.003429,1367,36266.0,35668.0,79277.0,0.457459288318,0.449916116907,598,0.75%,MN,Olmsted County,151436,36.9,128394,69973,182400,23632.0,57863.0,27,109,3.93,3.78,4.46
298,361,1374.703,6.640186063339412,180,Ramsey,MN,MN-Ramsey,27123,-93.100141,45.01525,1374,176929.0,70778.0,269161.0,0.657335200865,0.262957857936,"106,151",39.44%,MN,Ramsey County,538133,34.8,368423,57384,207600,89118.0,199720.0,27,123,4.11,3.8,4.55
299,362,322.78899999999993,6.357995934033334,43,Rice,MN,MN-Rice,27131,-93.298503,44.350943,1378,14437.0,15429.0,32217.0,0.448117453518,0.478908650712,992,3.08%,MN,Rice County,65400,37.1,57741,57323,185000,7583.0,,27,131,4.05,3.82,4.5
300,364,64.72999999999999,7.96246035129,12,Scott,MN,MN-Scott,27139,-93.534553,44.651932,1381,28502.0,39948.0,74390.0,0.38314289555,0.53700766232,"11,446",15.39%,MN,Scott County,141660,36.1,119510,92506,275100,24035.0,63802.0,27,139,4.0,3.78,4.46
301,365,59.27199999999999,7.257953774963638,15,Sherburne,MN,MN-Sherburne,27141,-93.775092,45.443171,1382,13299.0,31049.0,47938.0,0.277420835246,0.647690767241,"17,750",37.03%,MN,Sherburne County,91705,36.0,85930,80088,198600,11349.0,,27,141,4.16,3.8,4.56
302,363,150.702,8.365866584226316,47,St. Louis,MN,MN-St. Louis,27137,-92.463645,47.583852,1384,57769.0,44631.0,111260.0,0.519225238181,0.40114147043,"13,138",11.81%,MN,St. Louis County,200431,40.8,184955,50124,146600,25007.0,75526.0,27,137,4.02,3.61,4.41
303,363,150.702,8.365866584226316,47,St. Louis,MN,MN-St. Louis,27137,-92.463645,47.583852,1384,57769.0,44631.0,111260.0,0.519225238181,0.40114147043,"13,138",11.81%,MN,St. Louis County,200431,40.8,184955,50124,146600,25007.0,75526.0,27,137,4.02,3.61,4.41
302,363,183.77,8.541176470588235,33,St. Louis,MN,MN-St. Louis,27137,-92.463645,47.583852,1384,57769.0,44631.0,111260.0,0.519225238181,0.40114147043,"13,138",11.81%,MN,St. Louis County,200431,40.8,184955,50124,146600,25007.0,75526.0,27,137,4.02,3.61,4.41
303,363,183.77,8.541176470588235,33,St. Louis,MN,MN-St. Louis,27137,-92.463645,47.583852,1384,57769.0,44631.0,111260.0,0.519225238181,0.40114147043,"13,138",11.81%,MN,St. Louis County,200431,40.8,184955,50124,146600,25007.0,75526.0,27,137,4.02,3.61,4.41
304,366,575.03,8.015979476516666,30,Stearns,MN,MN-Stearns,27145,-94.610482,45.555235,1385,25575.0,47618.0,78985.0,0.323795657403,0.602873963411,"22,043",27.91%,MN,Stearns County,154708,34.1,139403,55030,171600,17088.0,67539.0,27,145,4.15,3.8,4.48
305,367,950.002,6.722605146725883,97,Washington,MN,MN-Washington,27163,-92.890117,45.037929,1394,67086.0,64429.0,142843.0,0.469648495201,0.451047653718,"2,657",1.86%,MN,Washington County,251597,39.3,216760,87995,266700,47050.0,111108.0,27,163,4.05,3.79,4.51
306,368,145.685,8.665170877000001,12,Wright,MN,MN-Wright,27171,-93.966396,45.175091,1398,20336.0,43274.0,69154.0,0.294068311305,0.625762790294,"22,938",33.17%,MN,Wright County,131311,36.3,123820,76306,211100,16235.0,58141.0,27,171,4.15,3.82,4.51
307,370,24.07,3.1266666666666665,3,Forrest,MS,MS-Forrest,28035,-89.259447,31.18858,1532,11271.0,15149.0,27284.0,0.413099252309,0.555233836681,"3,878",14.21%,MS,Forrest County,75944,32.6,45618,33779,108500,7093.0,,28,35,4.43,4.64,5.15
308,371,4.896,5.7272838770688965,1,Harrison,MS,MS-Harrison,28047,-89.083376,30.416536,1538,20679.0,39710.0,62076.0,0.333123912623,0.63969972292,"19,031",30.66%,MS,Harrison County,201410,36.0,137699,42297,143400,18775.0,,28,47,4.51,4.73,5.24
309,375,3.45,7.0,1,Lauderdale,MS,MS-Lauderdale,28075,-88.660449,32.403998,1552,10910.0,17574.0,28967.0,0.376635481755,0.606690371802,"6,664",23.01%,MS,Lauderdale County,78524,36.3,42794,37676,87400,5097.0,,28,75,4.48,4.61,5.15
310,376,7.58,7.0,2,Lee,MS,MS-Lee,28081,-88.680887,34.288965000000005,1555,9635.0,21695.0,31974.0,0.301338587602,0.6785200475390001,"12,060",37.72%,MS,Lee County,85300,36.7,57635,39581,135700,8142.0,,28,81,4.35,4.48,5.04
311,377,4.6,4.78,1,Madison,MS,MS-Madison,28089,-90.03416,32.634370000000004,1559,18358.0,25607.0,45048.0,0.407520866631,0.56843811046,"7,249",16.09%,MS,Madison County,103465,37.3,59159,67907,207300,18177.0,,28,89,4.41,4.58,5.11
312,378,2.8,8.6,1,Rankin,MS,MS-Rankin,28121,-89.946552,32.262057,1575,13741.0,46168.0,61356.0,0.223955277397,0.752461047004,"32,427",52.85%,MS,Rankin County,149039,38.0,114034,57500,155200,18456.0,,28,121,4.41,4.58,5.1
313,379,163.98000000000005,6.080909090909091,23,Boone,MO,MO-Boone,29019,-92.310779,38.989657,1409,41072.0,36146.0,83312.0,0.492990205493,0.433863068946,"4,926",5.91%,MO,Boone County,174974,30.4,141836,50520,181000,28486.0,72424.0,29,19,4.47,4.23,4.91
314,380,78.3,3.478021667570605,3,Buchanan,MO,MO-Buchanan,29021,-94.808173,39.660369,1410,12010.0,21315.0,35563.0,0.33771054185500005,0.599358884234,"9,305",26.16%,MO,Buchanan County,89100,36.7,78540,49302,111600,8174.0,,29,21,4.54,4.22,4.94
315,384,125.67,3.478021667570605,5,Clay,MO,MO-Clay,29047,-94.421502,39.315551,1423,45182.0,57328.0,109237.0,0.41361443467,0.524803866822,"12,146",11.12%,MO,Clay County,235637,37.2,202683,65090,159300,34386.0,,29,47,4.57,4.23,4.95
316,385,452.09,6.5128,25,Cole,MO,MO-Cole,29051,-92.271404,38.506847,1425,10907.0,24610.0,37261.0,0.292718928639,0.660476101017,"13,703",36.78%,MO,Cole County,76720,39.2,64765,56855,158500,11327.0,,29,51,4.48,4.25,4.92
317,386,42.28999999999999,4.90625,9,Franklin,MO,MO-Franklin,29071,-91.07341,38.408313,1435,12339.0,35420.0,50045.0,0.246558097712,0.707763013288,"23,081",46.12%,MO,Franklin County,102426,41.0,97677,48694,160700,9949.0,,29,71,4.42,4.23,4.89
318,388,623.6949999999998,4.0,27,Jackson,MO,MO-Jackson,29095,-94.342507,39.007233,1447,163723.0,114777.0,294063.0,0.5567616463139999,0.390314320401,"48,946",16.64%,MO,Jackson County,687623,36.5,459654,48212,130800,88231.0,274219.0,29,95,4.57,4.24,4.96
319,390,355.13,4.085925925925925,40,Jefferson,MO,MO-Jefferson,29099,-90.543138,38.257414,1449,31546.0,68973.0,105969.0,0.29769083411200004,0.6508790306600001,"37,427",35.32%,MO,Jefferson County,224124,38.7,215144,58704,155000,18034.0,,29,99,4.44,4.25,4.91
320,392,501.73,4.080454545454546,49,St. Charles,MO,MO-St. Charles,29183,-90.674915,38.781102,1497,68225.0,120899.0,199513.0,0.341957666919,0.605970538261,"52,674",26.40%,MO,St. Charles County,385590,37.8,345403,73116,197300,56494.0,179764.0,29,183,4.4,4.23,4.89
321,394,2070.322000000001,4.4028,147,St. Louis,MO,MO-St. Louis,29189,-90.445954,38.64070200000001,1500,280866.0,199081.0,503493.0,0.5578349649350001,0.395399737434,"81,785",16.24%,MO,St. Louis County,1003362,40.2,691396,61516,186500,168452.0,409705.0,29,189,4.39,4.22,4.88
322,395,474.87,5.2174999999999985,26,St. Louis city,MO,MO-St. Louis city,29510,-90.244582,38.635699,1501,101487.0,20281.0,127403.0,0.796582498057,0.159187774228,"81,206",63.74%,MO,St. Louis city,315685,35.0,147897,38397,130800,42726.0,110036.0,29,510,4.31,4.2,4.86
323,396,1.96,7.137076404178572,1,Cascade,MT,MT-Cascade,30013,-111.350571,47.316443,1603,12053.0,19343.0,33791.0,0.356692610458,0.572430528839,"7,290",21.57%,MT,Cascade County,82278,39.2,71830,45606,168600,9969.0,29931.0,30,13,4.89,3.93,4.8
324,398,50.74,7.49,8,Gallatin,MT,MT-Gallatin,30031,-111.173443,45.535559,1612,23879.0,23360.0,52169.0,0.4577239356710001,0.447775498859,519,0.99%,MT,Gallatin County,100739,33.6,94575,57535,293100,20417.0,38163.0,30,31,4.6,3.9,4.66
325,399,11.42,13.36,5,Lewis and Clark,MT,MT-Lewis and Clark,30049,-112.382954,47.12213300000001,1621,14331.0,16665.0,33697.0,0.425290085171,0.494554411372,"2,334",6.93%,MT,Lewis and Clark County,66418,40.2,62481,58796,219500,11641.0,,30,49,5.08,4.01,4.92
326,400,8.64,10.42,3,Missoula,MT,MT-Missoula,30063,-113.892681,47.027263,1628,30740.0,21699.0,57271.0,0.536746346318,0.378882855197,"9,041",15.79%,MT,Missoula County,114181,35.4,104696,42815,246400,18580.0,42735.0,30,63,4.66,3.79,4.49
327,401,30.91,7.137076404178572,4,Yellowstone,MT,MT-Yellowstone,30111,-108.276656,45.936987,1652,21117.0,38675.0,64675.0,0.326509470429,0.597989949749,"17,558",27.15%,MT,Yellowstone County,157048,38.0,142882,58026,209300,22692.0,64901.0,30,111,5.12,4.11,5.0
328,402,115.76,10.0,4,Douglas,NE,NE-Douglas,31055,-96.154066,41.297091,1833,105207.0,102151.0,219531.0,0.479235278844,0.465314693597,"3,056",1.39%,NE,Douglas County,550064,34.3,437160,58359,153300,88302.0,231640.0,31,55,4.5,4.16,4.92
329,403,11.5,9.43,3,Lancaster,NE,NE-Lancaster,31109,-96.688658,40.783547,1860,60533.0,60456.0,129803.0,0.46634515381,0.465751947181,77,0.06%,NE,Lancaster County,306468,33.1,265865,53807,163600,44102.0,136612.0,31,109,4.69,4.27,5.05
330,405,279891.8748633494,4.37997308742795,13518,Clark,NV,NV-Clark,32003,-115.013819,36.214236,1965,401068.0,319571.0,765421.0,0.523983533245,0.417510102284,"81,497",10.65%,NV,Clark County,2114801,37.0,1314736,51552,217300,221102.0,757770.0,32,3,7.36,5.62,6.62
331,406,30584.719500647017,5.8608999245834825,1724,Washoe,NV,NV-Washoe,32031,-119.710315,40.703311,1978,97032.0,94529.0,209282.0,0.463642358158,0.4516824189370001,"2,503",1.20%,NV,Washoe County,446903,38.1,354181,56382,268400,56245.0,164526.0,32,31,6.73,5.01,5.92
332,407,1973.6020000000005,4.911365796305862,274,Cheshire,NH,NH-Cheshire,33005,-72.24821700000003,42.925455,1901,22064.0,16876.0,41080.0,0.537098344693,0.410808179163,"5,188",12.63%,NH,Cheshire County,75909,42.7,71947,61780,194100,9910.0,,33,5,3.65,3.72,4.38
333,408,2907.67667,4.719651058123247,458,Grafton,NH,NH-Grafton,33009,-71.842264,43.926488,1903,28510.0,19010.0,50065.0,0.569459702387,0.379706381704,"9,500",18.98%,NH,Grafton County,89320,43.5,82376,58183,213400,11294.0,35478.0,33,9,3.69,3.6,4.27
334,409,3936.607999999995,4.6076700811315305,488,Hillsborough,NH,NH-Hillsborough,33011,-71.723101,42.911643,1904,99589.0,100013.0,210622.0,0.472832847471,0.474845932524,424,0.20%,NH,Hillsborough County,406678,40.8,370671,74323,256200,65697.0,175121.0,33,11,3.98,3.81,4.56
335,410,4008.965999999999,4.583940910296398,507,Merrimack,NH,NH-Merrimack,33013,-71.68013,43.299485,1905,40198.0,37674.0,81982.0,0.490327144983,0.459539899002,"2,524",3.08%,NH,Merrimack County,147994,43.2,140431,68566,220400,20689.0,,33,13,3.94,3.78,4.51
336,411,7204.826999999998,4.4611693079445836,596,Rockingham,NH,NH-Rockingham,33015,-71.099437,42.98936,1906,79994.0,90447.0,179005.0,0.446881372029,0.5052763889280001,"10,453",5.84%,NH,Rockingham County,301777,44.1,286085,87960,293100,56449.0,143961.0,33,15,4.02,3.84,4.61
337,412,7436.63200000001,4.188268492597938,343,Strafford,NH,NH-Strafford,33017,-71.035927,43.293177,1907,34894.0,29072.0,67918.0,0.513766600901,0.428045584381,"5,822",8.57%,NH,Strafford County,126825,37.3,117957,61563,215900,18972.0,50847.0,33,17,4.08,3.82,4.6
338,413,84397.96100000014,7.141060785335221,3214,Atlantic,NJ,NJ-Atlantic,34001,-74.633758,39.469354,1909,54472.0,47882.0,105738.0,0.515160112731,0.452836255651,"6,590",6.23%,NJ,Atlantic County,274219,40.7,185429,54052,223400,35671.0,97406.0,34,1,4.14,4.1,4.82
339,414,97904.78000000004,7.613440137629689,2131,Bergen,NJ,NJ-Bergen,34003,-74.074522,40.95909,1910,209251.0,163220.0,383965.0,0.5449741512899999,0.425090828591,"46,031",11.99%,NJ,Bergen County,938506,41.7,656493,89023,451100,200525.0,325330.0,34,3,3.83,3.92,4.62
340,415,192645.51799999934,7.244790879652019,4406,Burlington,NJ,NJ-Burlington,34005,-74.66300600000002,39.875786,1911,108361.0,79539.0,194988.0,0.555731634767,0.407917410302,"28,822",14.78%,NJ,Burlington County,450226,41.3,324433,74800,246300,75762.0,183658.0,34,5,4.0,4.03,4.75
341,416,93041.79699999998,7.397159873763073,2475,Camden,NJ,NJ-Camden,34007,-74.961251,39.802352,1912,142375.0,71020.0,220437.0,0.645876146019,0.32217821872,"71,355",32.37%,NJ,Camden County,510923,38.7,323313,65025,193800,70556.0,188187.0,34,7,4.04,4.05,4.76
342,417,29853.469,7.352635824954548,1450,Cape May,NJ,NJ-Cape May,34009,-74.847716,39.086142,1913,18626.0,28237.0,48375.0,0.3850335917310001,0.583710594315,"9,611",19.87%,NJ,Cape May County,94727,49.3,86752,57116,311800,13958.0,32816.0,34,9,4.31,4.23,4.95
343,418,120457.36599999992,7.077370297912853,1113,Cumberland,NJ,NJ-Cumberland,34011,-75.12164399999997,39.328387,1914,27045.0,24213.0,53018.0,0.5101097740389999,0.456693952997,"2,832",5.34%,NJ,Cumberland County,155854,37.3,110447,51315,157300,10721.0,55524.0,34,11,4.2,4.16,4.88
344,419,74066.656,7.800214136475286,1585,Essex,NJ,NJ-Essex,34013,-74.24613599999998,40.787216,1915,231031.0,62059.0,299808.0,0.770596515103,0.206995810652,"168,972",56.36%,NJ,Essex County,797434,37.0,333541,52041,375900,111450.0,222011.0,34,13,3.91,3.96,4.68
345,420,79242.54500000001,7.0672019371400445,2223,Gloucester,NJ,NJ-Gloucester,34015,-75.14370799999998,39.721019,1916,66355.0,66949.0,138388.0,0.479485215481,0.483777495159,594,0.43%,NJ,Gloucester County,291479,40.4,236613,77565,211800,39301.0,121055.0,34,15,4.09,4.08,4.79
346,421,84881.35099999997,7.5947208204687415,602,Hudson,NJ,NJ-Hudson,34017,-74.078627,40.73138400000001,1917,149980.0,45615.0,201425.0,0.744594762318,0.226461462083,"104,365",51.81%,NJ,Hudson County,674836,35.0,362723,60530,342800,120314.0,129988.0,34,17,3.79,3.93,4.62
347,422,59011.401000000056,7.62214999455591,1314,Hunterdon,NJ,NJ-Hunterdon,34019,-74.911969,40.565283,1918,28797.0,38565.0,70582.0,0.407993539429,0.546385764076,"9,768",13.84%,NJ,Hunterdon County,125488,45.3,114265,102122,404900,27711.0,52296.0,34,19,3.86,3.96,4.63
348,423,187071.9809999995,7.487174317070255,2072,Mercer,NJ,NJ-Mercer,34021,-74.703724,40.28250300000001,1919,93721.0,42604.0,141332.0,0.66312653893,0.301446240059,"51,117",36.17%,NJ,Mercer County,371398,38.8,240995,72417,283600,49212.0,130123.0,34,21,3.89,3.99,4.67
349,424,341852.953,7.369214587500607,4844,Middlesex,NJ,NJ-Middlesex,34023,-74.407585,40.439593,1920,164887.0,108981.0,282668.0,0.583323899416,0.385544171961,"55,906",19.78%,NJ,Middlesex County,840900,37.9,504867,78643,332900,140803.0,286296.0,34,23,3.89,3.98,4.67
350,425,152218.7379999998,7.511775912913333,5173,Monmouth,NJ,NJ-Monmouth,34025,-74.152446,40.287056,1921,135825.0,165305.0,311474.0,0.43607171064,0.530718454831,"29,480",9.46%,NJ,Monmouth County,628715,42.9,513647,87092,396000,116263.0,230815.0,34,25,3.92,4.0,4.69
351,426,109246.75599999985,7.574122428277615,1882,Morris,NJ,NJ-Morris,34027,-74.547427,40.858581,1922,114437.0,125376.0,248848.0,0.459867067447,0.503825628496,"10,939",4.40%,NJ,Morris County,499509,42.4,407191,101661,433400,102540.0,204603.0,34,27,3.87,3.93,4.63
352,427,139850.49299999993,7.181856564414762,9205,Ocean,NJ,NJ-Ocean,34029,-74.26302700000002,39.86585,1923,81845.0,170103.0,259592.0,0.315283213658,0.655270578446,"88,258",34.00%,NJ,Ocean County,588721,43.0,536710,63765,270200,76239.0,209776.0,34,29,4.08,4.05,4.78
353,428,58536.084,7.719768141835956,1077,Passaic,NJ,NJ-Passaic,34031,-74.30030699999998,41.033763,1924,112608.0,71488.0,189099.0,0.595497596497,0.378045362482,"41,120",21.75%,NJ,Passaic County,510916,36.8,299987,55954,330800,55572.0,163128.0,34,31,3.88,3.92,4.63
354,429,57658.35100000003,7.0855347829575965,661,Salem,NJ,NJ-Salem,34033,-75.35735600000002,39.573828000000006,1925,11766.0,16256.0,29220.0,0.402669404517,0.556331279945,"4,490",15.37%,NJ,Salem County,64180,42.7,51720,68830,191200,6439.0,,34,33,4.16,4.12,4.83
355,430,121405.0929999998,7.46258471545501,2682,Somerset,NJ,NJ-Somerset,34035,-74.61993000000002,40.565522,1926,83839.0,64640.0,154249.0,0.543530265998,0.419062684361,"19,199",12.45%,NJ,Somerset County,333654,41.3,219720,98440,420400,69330.0,134577.0,34,35,3.86,3.96,4.65
356,431,36510.242,7.386744879744924,726,Sussex,NJ,NJ-Sussex,34037,-74.691855,41.137424,1927,24132.0,46486.0,73860.0,0.32672623883,0.629379907934,"22,354",30.27%,NJ,Sussex County,143673,44.4,133596,85086,267600,25436.0,64944.0,34,37,3.72,3.88,4.53
357,432,93169.16000000018,7.546700124175812,1539,Union,NJ,NJ-Union,34039,-74.308696,40.659871,1928,145412.0,67582.0,219385.0,0.662816509789,0.308052054607,"77,830",35.48%,NJ,Union County,555786,38.2,322650,71163,342800,73448.0,177773.0,34,39,3.88,3.95,4.66
358,433,59690.33099999997,7.547726474139184,652,Warren,NJ,NJ-Warren,34041,-75.00954200000002,40.853524,1929,16991.0,29393.0,48442.0,0.35074934973800004,0.606766855208,"12,402",25.60%,NJ,Warren County,106869,43.7,95175,71277,256000,16056.0,,34,41,3.75,3.9,4.56
359,434,17758.345000000045,5.955890557977044,2848,Bernalillo,NM,NM-Bernalillo,35001,-106.669064,35.054002000000004,1930,141960.0,93874.0,269861.0,0.526048595388,0.347860565254,"48,086",17.82%,NM,Bernalillo County,676685,36.8,479945,47747,189000,77319.0,253248.0,35,1,7.45,5.58,6.57
360,435,597.795,6.481953606805714,35,Chaves,NM,NM-Chaves,35005,-104.469837,33.361604,1932,5530.0,12869.0,20159.0,0.274319162657,0.638374919391,"7,339",36.41%,NM,Chaves County,65764,36.8,58125,38044,100000,4665.0,,35,5,6.87,5.58,6.43
361,437,42605.5,5.5,5,Lea,NM,NM-Lea,35025,-103.413271,32.795687,1943,3877.0,12306.0,17369.0,0.223213771662,0.708503655939,"8,429",48.53%,NM,Lea County,71180,31.5,60734,56260,116900,4333.0,,35,25,6.83,5.57,6.39
362,438,42.151,5.549105263428572,7,McKinley,NM,NM-McKinley,35031,-108.255307,35.573732,1947,13162.0,4893.0,20791.0,0.633062382762,0.235342215382,"8,269",39.77%,NM,McKinley County,76708,30.2,12645,28212,55000,2342.0,,35,31,7.25,5.27,6.2
363,439,6773.461000000008,5.667691237352481,142,Otero,NM,NM-Otero,35035,-105.781079,32.588776,1949,6033.0,11756.0,19636.0,0.307241800774,0.598696272153,"5,723",29.15%,NM,Otero County,64362,36.3,49852,36142,109000,3719.0,,35,35,7.42,5.68,6.57
364,441,247.061,5.584503629126191,42,San Juan,NM,NM-San Juan,35045,-108.324578,36.511624,1954,12826.0,27879.0,45476.0,0.28203887765,0.613048641041,"15,053",33.10%,NM,San Juan County,118737,35.6,65856,49613,147800,5634.0,42205.0,35,45,7.64,5.51,6.52
365,440,5031.884999999998,5.97954467091459,919,Sandoval,NM,NM-Sandoval,35043,-106.882618,35.685073,1953,27405.0,25748.0,60597.0,0.452250111392,0.424905523376,"1,657",2.73%,NM,Sandoval County,139394,40.1,92026,63598,186200,16178.0,,35,43,7.49,5.48,6.48
366,442,6996.727000000024,7.004798672167133,1219,Santa Fe,NM,NM-Santa Fe,35049,-105.966441,35.51372199999999,1956,49956.0,14198.0,70082.0,0.712822122656,0.20259125025,"35,758",51.02%,NM,Santa Fe County,148686,45.4,123460,55676,286200,20745.0,56633.0,35,49,7.55,5.49,6.49
367,443,7438.82100000001,5.575667353764456,243,Valencia,NM,NM-Valencia,35061,-106.806582,34.716840000000005,1962,10810.0,13175.0,27350.0,0.395246800731,0.481718464351,"2,365",8.65%,NM,Valencia County,75737,39.3,63342,42092,129700,4885.0,,35,61,7.75,5.66,6.67
368,444,22400.30619969499,5.879961874081044,1648,Albany,NY,NY-Albany,36001,-73.974014,42.588271,1980,74775.0,44227.0,125644.0,0.5951338703,0.35200248320699995,"30,548",24.31%,NY,Albany County,309381,37.7,237074,57042,209300,40903.0,117994.0,36,1,3.98,3.8,4.49
369,445,7708.275036381999,6.762835246347913,316,Bronx,NY,NY-Bronx,36005,-73.852939,40.848711,1982,318403.0,34424.0,358857.0,0.8872698595819999,0.0959267897798,"283,979",79.13%,NY,Bronx County,1455444,33.6,296739,35176,368500,122969.0,127507.0,36,5,3.82,3.94,4.64
370,446,3227.7229579999957,5.739229377648293,322,Broome,NY,NY-Broome,36007,-75.830291,42.161977,1983,35212.0,38077.0,77657.0,0.45342982603,0.49032282988,"2,865",3.69%,NY,Broome County,196567,40.3,169170,46152,111900,19578.0,69366.0,36,7,3.57,3.7,4.29
371,447,805.9470249999997,5.60505007825128,78,Cattaraugus,NY,NY-Cattaraugus,36009,-78.681005,42.244853000000006,1984,8717.0,18668.0,28961.0,0.30099098788,0.644591001692,"9,951",34.36%,NY,Cattaraugus County,77922,41.3,71494,40016,88100,5421.0,,36,9,3.46,3.66,4.18
372,448,2035.8151980000011,4.967028433718095,210,Cayuga,NY,NY-Cayuga,36011,-76.574587,43.008546,1985,12202.0,16194.0,30124.0,0.405059089098,0.537578010888,"3,992",13.25%,NY,Cayuga County,78288,42.2,72240,53146,122600,6774.0,,36,11,3.7,3.73,4.27
373,449,2003.3684409999994,5.434838970209956,212,Chautauqua,NY,NY-Chautauqua,36013,-79.407595,42.304216,1986,17281.0,29418.0,49381.0,0.34995241084600004,0.595735201798,"12,137",24.58%,NY,Chautauqua County,130779,42.5,121646,44460,86300,11065.0,,36,13,3.25,3.6,3.98
374,450,753.61081,5.799577098674999,112,Chemung,NY,NY-Chemung,36015,-76.747179,42.155281,1987,12394.0,19025.0,33195.0,0.373369483356,0.573128483205,"6,631",19.98%,NY,Chemung County,87071,41.1,76618,53119,98600,7729.0,31353.0,36,15,3.63,3.74,4.33
375,451,2006.170400429002,6.052301369828572,210,Clinton,NY,NY-Clinton,36019,-73.705648,44.75271,1989,13446.0,13181.0,28378.0,0.473817746141,0.464479526394,265,0.93%,NY,Clinton County,81251,39.1,74541,45377,128700,5225.0,,36,19,4.02,3.62,4.32
376,452,18229.55743945799,5.999408054309021,2028,Dutchess,NY,NY-Dutchess,36027,-73.739951,41.755008,1993,56874.0,58163.0,120199.0,0.473165334154,0.483889217048,"1,289",1.07%,NY,Dutchess County,295754,41.3,228378,71864,268100,38158.0,103406.0,36,27,3.79,3.86,4.54
377,453,21518.98697050004,5.422550290539495,1392,Erie,NY,NY-Erie,36029,-78.778192,42.75275900000001,1994,192065.0,173817.0,383248.0,0.501150690936,0.453536613368,"18,248",4.76%,NY,Erie County,922578,40.2,718294,52214,139800,116369.0,360398.0,36,29,3.42,3.64,4.09
378,454,3883.758584,5.020799686824546,220,Jefferson,NY,NY-Jefferson,36045,-76.053522,43.995371,2002,12289.0,19947.0,34263.0,0.358666783411,0.582173189738,"7,658",22.35%,NY,Jefferson County,117635,31.9,101377,51107,155600,9745.0,,36,45,3.7,3.7,4.21
379,455,12188.000128000007,7.189083845074734,686,Kings,NY,NY-Kings,36047,-73.950777,40.635133,2003,595086.0,133653.0,746295.0,0.797387092236,0.179088698169,"461,433",61.83%,NY,Kings County,2636735,34.7,1143422,51141,638500,383350.0,219621.0,36,47,3.91,4.0,4.71
